state_id,city,state,lat,lng
644acdf0a6ac80d10e860528,New York,New York,40.6943,-73.9249
644acdf0a6ac80d10e860529,Los Angeles,California,34.1141,-118.4068
644acdf0a6ac80d10e86052a,Chicago,Illinois,41.8375,-87.6866
644acdf0a6ac80d10e86052b,Miami,Florida,25.784,-80.2101
644acdf0a6ac80d10e86052c,Dallas,Texas,32.7935,-96.7667
644acdf0a6ac80d10e86052c,Houston,Texas,29.786,-95.3885
644acdf0a6ac80d10e86052d,Philadelphia,Pennsylvania,40.0077,-75.1339
644acdf0a6ac80d10e86052e,Atlanta,Georgia,33.7628,-84.422
644acdf0a6ac80d10e86052f,Washington,District of Columbia,38.9047,-77.0163
644acdf0a6ac80d10e860530,Boston,Massachusetts,42.3188,-71.0852
644acdf0a6ac80d10e860531,Phoenix,Arizona,33.5722,-112.0892
644acdf0a6ac80d10e860532,Detroit,Michigan,42.3834,-83.1024
644acdf0a6ac80d10e860533,Seattle,Washington,47.6211,-122.3244
644acdf0a6ac80d10e860529,San Francisco,California,37.7558,-122.4449
644acdf0a6ac80d10e860529,San Diego,California,32.8313,-117.1222
644acdf0a6ac80d10e860534,Minneapolis,Minnesota,44.9635,-93.2678
644acdf0a6ac80d10e860528,Brooklyn,New York,40.6501,-73.9496
644acdf0a6ac80d10e86052b,Tampa,Florida,27.9945,-82.4447
644acdf0a6ac80d10e860535,Denver,Colorado,39.762,-104.8758
644acdf0a6ac80d10e860528,Queens,New York,40.7498,-73.7976
644acdf0a6ac80d10e860536,Baltimore,Maryland,39.3051,-76.6144
644acdf0a6ac80d10e860537,Las Vegas,Nevada,36.2333,-115.2654
644acdf0a6ac80d10e860538,St. Louis,Missouri,38.6359,-90.2451
644acdf0a6ac80d10e860539,Portland,Oregon,45.5371,-122.65
644acdf0a6ac80d10e860529,Riverside,California,33.9381,-117.3949
644acdf0a6ac80d10e86052b,Orlando,Florida,28.4773,-81.337
644acdf0a6ac80d10e860529,Sacramento,California,38.5677,-121.4685
644acdf0a6ac80d10e86053a,San Juan,Puerto Rico,18.3985,-66.061
644acdf0a6ac80d10e86052c,San Antonio,Texas,29.4632,-98.5238
644acdf0a6ac80d10e860529,San Jose,California,37.3012,-121.848
644acdf0a6ac80d10e86052d,Pittsburgh,Pennsylvania,40.4397,-79.9763
644acdf0a6ac80d10e86053b,Cincinnati,Ohio,39.1413,-84.506
644acdf0a6ac80d10e860528,Manhattan,New York,40.7834,-73.9662
644acdf0a6ac80d10e86053b,Cleveland,Ohio,41.4764,-81.6805
644acdf0a6ac80d10e86053c,Indianapolis,Indiana,39.7771,-86.1458
644acdf0a6ac80d10e86052c,Austin,Texas,30.3005,-97.7522
644acdf0a6ac80d10e860538,Kansas City,Missouri,39.1238,-94.5541
644acdf0a6ac80d10e86053b,Columbus,Ohio,39.9862,-82.9855
644acdf0a6ac80d10e86053d,Charlotte,North Carolina,35.2083,-80.8303
644acdf0a6ac80d10e86053e,Virginia Beach,Virginia,36.7335,-76.0435
644acdf0a6ac80d10e860528,Bronx,New York,40.8501,-73.8662
644acdf0a6ac80d10e86053f,Milwaukee,Wisconsin,43.0642,-87.9675
644acdf0a6ac80d10e860540,Providence,Rhode Island,41.823,-71.4187
644acdf0a6ac80d10e86052b,Jacksonville,Florida,30.3322,-81.6749
644acdf0a6ac80d10e860541,Salt Lake City,Utah,40.7776,-111.9311
644acdf0a6ac80d10e860542,Nashville,Tennessee,36.1715,-86.7842
644acdf0a6ac80d10e86053d,Raleigh,North Carolina,35.8324,-78.6429
644acdf0a6ac80d10e860542,Memphis,Tennessee,35.1087,-89.9663
644acdf0a6ac80d10e860543,Louisville,Kentucky,38.1663,-85.6485
644acdf0a6ac80d10e86053e,Richmond,Virginia,37.5295,-77.4756
644acdf0a6ac80d10e860528,Buffalo,New York,42.9018,-78.8487
644acdf0a6ac80d10e860544,Oklahoma City,Oklahoma,35.4676,-97.5136
644acdf0a6ac80d10e860545,Bridgeport,Connecticut,41.1918,-73.1954
644acdf0a6ac80d10e860546,New Orleans,Louisiana,30.0687,-89.9288
644acdf0a6ac80d10e86052c,Fort Worth,Texas,32.7817,-97.3474
644acdf0a6ac80d10e860545,Hartford,Connecticut,41.7661,-72.6834
644acdf0a6ac80d10e860531,Tucson,Arizona,32.1541,-110.8787
644acdf0a6ac80d10e860547,Honolulu,Hawaii,21.3294,-157.846
644acdf0a6ac80d10e86052c,McAllen,Texas,26.2252,-98.2467
644acdf0a6ac80d10e860548,Omaha,Nebraska,41.2627,-96.0529
644acdf0a6ac80d10e86052c,El Paso,Texas,31.8476,-106.43
644acdf0a6ac80d10e860549,Albuquerque,New Mexico,35.1054,-106.6465
644acdf0a6ac80d10e860528,Rochester,New York,43.168,-77.6162
644acdf0a6ac80d10e86052b,Sarasota,Florida,27.3387,-82.5432
644acdf0a6ac80d10e860529,Fresno,California,36.783,-119.7939
644acdf0a6ac80d10e860544,Tulsa,Oklahoma,36.1283,-95.9042
644acdf0a6ac80d10e86052d,Allentown,Pennsylvania,40.5961,-75.4756
644acdf0a6ac80d10e86053b,Dayton,Ohio,39.7805,-84.2003
644acdf0a6ac80d10e86054a,Birmingham,Alabama,33.5279,-86.7971
644acdf0a6ac80d10e86054b,Charleston,South Carolina,32.8168,-79.9687
644acdf0a6ac80d10e86052b,Cape Coral,Florida,26.6443,-81.9957
644acdf0a6ac80d10e86054b,Columbia,South Carolina,34.0378,-80.9036
644acdf0a6ac80d10e860529,Concord,California,37.9722,-122.0016
644acdf0a6ac80d10e860535,Colorado Springs,Colorado,38.8674,-104.7605
644acdf0a6ac80d10e860530,Springfield,Massachusetts,42.1155,-72.5395
644acdf0a6ac80d10e860542,Knoxville,Tennessee,35.9692,-83.9496
644acdf0a6ac80d10e860546,Baton Rouge,Louisiana,30.442,-91.1311
644acdf0a6ac80d10e860541,Ogden,Utah,41.2279,-111.9682
644acdf0a6ac80d10e860532,Grand Rapids,Michigan,42.9619,-85.6562
644acdf0a6ac80d10e860528,Albany,New York,42.6664,-73.7987
644acdf0a6ac80d10e860529,Bakersfield,California,35.3529,-119.0359
644acdf0a6ac80d10e860529,Mission Viejo,California,33.6096,-117.6551
644acdf0a6ac80d10e860545,New Haven,Connecticut,41.3113,-72.9246
644acdf0a6ac80d10e860530,Worcester,Massachusetts,42.2705,-71.8079
644acdf0a6ac80d10e860541,Provo,Utah,40.2457,-111.6457
644acdf0a6ac80d10e86053b,Akron,Ohio,41.0798,-81.5219
644acdf0a6ac80d10e86052b,Palm Bay,Florida,27.9631,-80.6593
644acdf0a6ac80d10e86054c,Des Moines,Iowa,41.5725,-93.6105
644acdf0a6ac80d10e860529,Murrieta,California,33.5719,-117.1909
644acdf0a6ac80d10e860531,Mesa,Arizona,33.4015,-111.7178
644acdf0a6ac80d10e860528,Staten Island,New York,40.5834,-74.1496
644acdf0a6ac80d10e86054d,Wichita,Kansas,37.6895,-97.3443
644acdf0a6ac80d10e86053b,Toledo,Ohio,41.6638,-83.5827
644acdf0a6ac80d10e86052d,Harrisburg,Pennsylvania,40.2752,-76.8843
644acdf0a6ac80d10e86052b,Port St. Lucie,Florida,27.2796,-80.3884
644acdf0a6ac80d10e860529,Long Beach,California,33.7977,-118.167
644acdf0a6ac80d10e860537,Reno,Nevada,39.5497,-119.8483
644acdf0a6ac80d10e86053f,Madison,Wisconsin,43.0822,-89.393
644acdf0a6ac80d10e86054e,Little Rock,Arkansas,34.7256,-92.3577
644acdf0a6ac80d10e86054b,Greenville,South Carolina,34.8354,-82.3646
644acdf0a6ac80d10e86052c,Denton,Texas,33.2175,-97.1418
644acdf0a6ac80d10e860533,Spokane,Washington,47.6671,-117.433
644acdf0a6ac80d10e860529,Oakland,California,37.7904,-122.2166
644acdf0a6ac80d10e86052d,Lancaster,Pennsylvania,40.042,-76.3012
644acdf0a6ac80d10e860528,Poughkeepsie,New York,41.695,-73.9211
644acdf0a6ac80d10e86054f,Boise,Idaho,43.6005,-116.2308
644acdf0a6ac80d10e86053d,Winston-Salem,North Carolina,36.1029,-80.261
644acdf0a6ac80d10e860528,Syracuse,New York,43.0407,-76.1437
644acdf0a6ac80d10e86052e,Augusta,Georgia,33.3645,-82.0708
644acdf0a6ac80d10e860529,Stockton,California,37.9765,-121.3109
644acdf0a6ac80d10e86052b,Palm Coast,Florida,29.5389,-81.2457
644acdf0a6ac80d10e860542,Chattanooga,Tennessee,35.066,-85.2481
644acdf0a6ac80d10e86052b,Kissimmee,Florida,28.3041,-81.4169
644acdf0a6ac80d10e86053d,Durham,North Carolina,35.9792,-78.9022
644acdf0a6ac80d10e86052c,Arlington,Texas,32.6998,-97.125
644acdf0a6ac80d10e860529,Victorville,California,34.5277,-117.3536
644acdf0a6ac80d10e860535,Aurora,Colorado,39.7083,-104.7237
644acdf0a6ac80d10e860529,Modesto,California,37.6375,-121.0028
644acdf0a6ac80d10e860529,Lancaster,California,34.6935,-118.1753
644acdf0a6ac80d10e86054e,Fayetteville,Arkansas,36.0714,-94.1661
644acdf0a6ac80d10e86052d,Scranton,Pennsylvania,41.4044,-75.6649
644acdf0a6ac80d10e860529,Oxnard,California,34.1964,-119.1815
644acdf0a6ac80d10e86053b,Youngstown,Ohio,41.0993,-80.6463
644acdf0a6ac80d10e860529,Indio,California,33.7346,-116.2346
644acdf0a6ac80d10e86052b,Pensacola,Florida,30.4413,-87.1911
644acdf0a6ac80d10e860529,Anaheim,California,33.839,-117.8574
644acdf0a6ac80d10e86052b,Bonita Springs,Florida,26.3558,-81.7859
644acdf0a6ac80d10e86053d,Greensboro,North Carolina,36.0956,-79.8271
644acdf0a6ac80d10e86054a,Huntsville,Alabama,34.6981,-86.6412
644acdf0a6ac80d10e86052c,Corpus Christi,Texas,27.7254,-97.3767
644acdf0a6ac80d10e86053c,Fort Wayne,Indiana,41.0888,-85.1436
644acdf0a6ac80d10e86053d,Fayetteville,North Carolina,35.085,-78.9772
644acdf0a6ac80d10e860532,Ann Arbor,Michigan,42.2759,-83.731
644acdf0a6ac80d10e860550,Jackson,Mississippi,32.3157,-90.2125
644acdf0a6ac80d10e860529,Antioch,California,37.9787,-121.796
644acdf0a6ac80d10e86054a,Mobile,Alabama,30.6782,-88.1162
644acdf0a6ac80d10e860543,Lexington,Kentucky,38.0423,-84.4587
644acdf0a6ac80d10e86053d,Asheville,North Carolina,35.5707,-82.5537
644acdf0a6ac80d10e860551,Trenton,New Jersey,40.2237,-74.7641
644acdf0a6ac80d10e860529,Santa Rosa,California,38.4458,-122.7067
644acdf0a6ac80d10e860529,Santa Ana,California,33.7367,-117.8819
644acdf0a6ac80d10e860532,Lansing,Michigan,42.7142,-84.5601
644acdf0a6ac80d10e860537,Henderson,Nevada,36.0133,-115.0381
644acdf0a6ac80d10e860534,St. Paul,Minnesota,44.9478,-93.1039
644acdf0a6ac80d10e86052b,Lakeland,Florida,28.0557,-81.9545
644acdf0a6ac80d10e860551,Newark,New Jersey,40.7245,-74.1725
644acdf0a6ac80d10e860535,Fort Collins,Colorado,40.5477,-105.0656
644acdf0a6ac80d10e86052d,Reading,Pennsylvania,40.34,-75.9267
644acdf0a6ac80d10e860538,Springfield,Missouri,37.1943,-93.2916
644acdf0a6ac80d10e860529,Irvine,California,33.6772,-117.7738
644acdf0a6ac80d10e860552,Anchorage,Alaska,61.1508,-149.1091
644acdf0a6ac80d10e86052c,The Woodlands,Texas,30.1738,-95.5134
644acdf0a6ac80d10e86053c,South Bend,Indiana,41.6767,-86.2696
644acdf0a6ac80d10e86052a,Rockford,Illinois,42.2596,-89.064
644acdf0a6ac80d10e86052e,Savannah,Georgia,32.0286,-81.1821
644acdf0a6ac80d10e860548,Lincoln,Nebraska,40.8099,-96.6784
644acdf0a6ac80d10e860551,Jersey City,New Jersey,40.7184,-74.0686
644acdf0a6ac80d10e86052a,Round Lake Beach,Illinois,42.3791,-88.0811
644acdf0a6ac80d10e860532,Flint,Michigan,43.0236,-83.6921
644acdf0a6ac80d10e860546,Shreveport,Louisiana,32.4653,-93.7955
644acdf0a6ac80d10e86052c,Plano,Texas,33.0502,-96.7486
644acdf0a6ac80d10e86054b,Myrtle Beach,South Carolina,33.7094,-78.8844
644acdf0a6ac80d10e86054c,Davenport,Iowa,41.5565,-90.6053
644acdf0a6ac80d10e86053b,Canton,Ohio,40.8078,-81.3676
644acdf0a6ac80d10e860529,Santa Clarita,California,34.4175,-118.4964
644acdf0a6ac80d10e860529,Chula Vista,California,32.6281,-117.0144
644acdf0a6ac80d10e860539,Eugene,Oregon,44.0564,-123.1174
644acdf0a6ac80d10e860531,Chandler,Arizona,33.2825,-111.8514
644acdf0a6ac80d10e860539,Salem,Oregon,44.9233,-123.0244
644acdf0a6ac80d10e86053d,Concord,North Carolina,35.3933,-80.6369
644acdf0a6ac80d10e860531,Gilbert,Arizona,33.31,-111.7463
644acdf0a6ac80d10e86052e,Columbus,Georgia,32.51,-84.8771
644acdf0a6ac80d10e86053a,Aguadilla,Puerto Rico,18.4382,-67.1537
644acdf0a6ac80d10e86052c,Lubbock,Texas,33.5657,-101.8879
644acdf0a6ac80d10e860537,North Las Vegas,Nevada,36.2883,-115.0888
644acdf0a6ac80d10e86052b,St. Petersburg,Florida,27.7931,-82.6652
644acdf0a6ac80d10e86052b,Tallahassee,Florida,30.4551,-84.2527
644acdf0a6ac80d10e86052c,Laredo,Texas,27.5625,-99.4874
644acdf0a6ac80d10e86052a,Peoria,Illinois,40.752,-89.6154
644acdf0a6ac80d10e860531,Avondale,Arizona,33.3873,-112.3235
644acdf0a6ac80d10e860546,Lafayette,Louisiana,30.2082,-92.0325
644acdf0a6ac80d10e86052c,Irving,Texas,32.8583,-96.9702
644acdf0a6ac80d10e86054a,Montgomery,Alabama,32.3482,-86.2668
644acdf0a6ac80d10e860529,Visalia,California,36.3276,-119.3269
644acdf0a6ac80d10e86052c,McKinney,Texas,33.2016,-96.667
644acdf0a6ac80d10e86053d,Wilmington,North Carolina,34.2099,-77.8866
644acdf0a6ac80d10e86053e,Chesapeake,Virginia,36.6778,-76.3023
644acdf0a6ac80d10e860531,Glendale,Arizona,33.5791,-112.2311
644acdf0a6ac80d10e86052c,Garland,Texas,32.91,-96.6304
644acdf0a6ac80d10e860533,Kennewick,Washington,46.1978,-119.1732
644acdf0a6ac80d10e86052b,Winter Haven,Florida,28.0118,-81.7014
644acdf0a6ac80d10e860531,Scottsdale,Arizona,33.6872,-111.8651
644acdf0a6ac80d10e86053e,Norfolk,Virginia,36.8945,-76.259
644acdf0a6ac80d10e86052c,Killeen,Texas,31.0753,-97.7297
644acdf0a6ac80d10e86052d,York,Pennsylvania,39.9651,-76.7315
644acdf0a6ac80d10e860551,Atlantic City,New Jersey,39.3797,-74.4527
644acdf0a6ac80d10e860553,Nashua,New Hampshire,42.7491,-71.491
644acdf0a6ac80d10e86053e,Arlington,Virginia,38.8786,-77.1011
644acdf0a6ac80d10e86052c,Brownsville,Texas,25.9975,-97.458
644acdf0a6ac80d10e860529,Fremont,California,37.5265,-121.9843
644acdf0a6ac80d10e860550,Gulfport,Mississippi,30.4274,-89.0704
644acdf0a6ac80d10e86053c,Evansville,Indiana,37.9881,-87.5341
644acdf0a6ac80d10e86052b,Hialeah,Florida,25.8696,-80.3045
644acdf0a6ac80d10e86052b,Navarre,Florida,30.4174,-86.8907
644acdf0a6ac80d10e860536,Bel Air South,Maryland,39.5022,-76.3113
644acdf0a6ac80d10e86052b,North Port,Florida,27.0576,-82.1977
644acdf0a6ac80d10e860529,San Bernardino,California,34.1416,-117.2943
644acdf0a6ac80d10e860554,Portland,Maine,43.6773,-70.2715
644acdf0a6ac80d10e860537,Enterprise,Nevada,36.0091,-115.2278
644acdf0a6ac80d10e860533,Bremerton,Washington,47.5436,-122.7121
644acdf0a6ac80d10e86053f,Green Bay,Wisconsin,44.5148,-87.9895
644acdf0a6ac80d10e86053f,Appleton,Wisconsin,44.278,-88.3892
644acdf0a6ac80d10e860537,Spring Valley,Nevada,36.0952,-115.2636
644acdf0a6ac80d10e860533,Tacoma,Washington,47.2431,-122.4531
644acdf0a6ac80d10e86054b,Spartanburg,South Carolina,34.9442,-81.9251
644acdf0a6ac80d10e86053e,Roanoke,Virginia,37.2785,-79.9581
644acdf0a6ac80d10e86052b,Gainesville,Florida,29.6804,-82.3459
644acdf0a6ac80d10e86052b,Deltona,Florida,28.905,-81.2137
644acdf0a6ac80d10e860532,Kalamazoo,Michigan,42.2749,-85.5882
644acdf0a6ac80d10e860529,Thousand Oaks,California,34.1914,-118.8756
644acdf0a6ac80d10e86053d,Hickory,North Carolina,35.741,-81.3223
644acdf0a6ac80d10e860528,Yonkers,New York,40.9466,-73.8673
644acdf0a6ac80d10e860529,Moreno Valley,California,33.9244,-117.2045
644acdf0a6ac80d10e860529,Fontana,California,34.0968,-117.4599
644acdf0a6ac80d10e86052c,College Station,Texas,30.5852,-96.2959
644acdf0a6ac80d10e860555,Fargo,North Dakota,46.8651,-96.8292
644acdf0a6ac80d10e86052c,Amarillo,Texas,35.1984,-101.8316
644acdf0a6ac80d10e860545,Norwich,Connecticut,41.5495,-72.0882
644acdf0a6ac80d10e860533,Olympia,Washington,47.0417,-122.8959
644acdf0a6ac80d10e860545,Waterbury,Connecticut,41.5582,-73.0361
644acdf0a6ac80d10e860529,Salinas,California,36.6883,-121.6317
644acdf0a6ac80d10e860556,Huntington,West Virginia,38.4109,-82.4345
644acdf0a6ac80d10e860529,Huntington Beach,California,33.696,-118.0018
644acdf0a6ac80d10e860542,Clarksville,Tennessee,36.5692,-87.3413
644acdf0a6ac80d10e860529,Santa Barbara,California,34.4285,-119.7202
644acdf0a6ac80d10e860529,Glendale,California,34.1819,-118.2468
644acdf0a6ac80d10e860537,Sunrise Manor,Nevada,36.1783,-115.0487
644acdf0a6ac80d10e86052c,Grand Prairie,Texas,32.6871,-97.0208
644acdf0a6ac80d10e86054d,Overland Park,Kansas,38.887,-94.687
644acdf0a6ac80d10e860536,Hagerstown,Maryland,39.6401,-77.7217
644acdf0a6ac80d10e86054f,Nampa,Idaho,43.5844,-116.5638
644acdf0a6ac80d10e86053d,Gastonia,North Carolina,35.2494,-81.1854
644acdf0a6ac80d10e86052c,Frisco,Texas,33.156,-96.8216
644acdf0a6ac80d10e86054c,Cedar Rapids,Iowa,41.9662,-91.6783
644acdf0a6ac80d10e860529,Hemet,California,33.7341,-116.9969
644acdf0a6ac80d10e860537,Paradise,Nevada,36.0872,-115.1355
644acdf0a6ac80d10e860557,Sioux Falls,South Dakota,43.5396,-96.7311
644acdf0a6ac80d10e860533,Vancouver,Washington,45.6366,-122.5967
644acdf0a6ac80d10e860531,Peoria,Arizona,33.7843,-112.2989
644acdf0a6ac80d10e86052c,Waco,Texas,31.5599,-97.1882
644acdf0a6ac80d10e86053b,Lorain,Ohio,41.4409,-82.184
644acdf0a6ac80d10e86052d,Erie,Pennsylvania,42.1167,-80.0733
644acdf0a6ac80d10e86053e,Newport News,Virginia,37.1051,-76.5185
644acdf0a6ac80d10e86052a,Aurora,Illinois,41.7638,-88.2902
644acdf0a6ac80d10e86052b,Fort Lauderdale,Florida,26.1412,-80.1464
644acdf0a6ac80d10e860529,Vallejo,California,38.1125,-122.2342
644acdf0a6ac80d10e860542,Murfreesboro,Tennessee,35.849,-86.4121
644acdf0a6ac80d10e86052b,Spring Hill,Florida,28.4798,-82.53
644acdf0a6ac80d10e860531,Tempe,Arizona,33.3881,-111.9319
644acdf0a6ac80d10e86053d,High Point,North Carolina,35.991,-79.9937
644acdf0a6ac80d10e860539,Medford,Oregon,42.3372,-122.854
644acdf0a6ac80d10e860545,Danbury,Connecticut,41.4015,-73.4709
644acdf0a6ac80d10e860529,Elk Grove,California,38.4161,-121.3842
644acdf0a6ac80d10e860529,Ontario,California,34.0393,-117.6064
644acdf0a6ac80d10e860536,Frederick,Maryland,39.4337,-77.4141
644acdf0a6ac80d10e86052b,Vero Beach South,Florida,27.6132,-80.4163
644acdf0a6ac80d10e86052b,Ocala,Florida,29.178,-82.1511
644acdf0a6ac80d10e860529,Oceanside,California,33.2247,-117.3083
644acdf0a6ac80d10e860529,Rancho Cucamonga,California,34.1247,-117.5667
644acdf0a6ac80d10e860529,Garden Grove,California,33.7787,-117.9601
644acdf0a6ac80d10e86053d,Cary,North Carolina,35.7819,-78.8195
644acdf0a6ac80d10e86052b,Pembroke Pines,Florida,26.0128,-80.3382
644acdf0a6ac80d10e86053a,Bayamón,Puerto Rico,18.3794,-66.1635
644acdf0a6ac80d10e860529,Palmdale,California,34.5944,-118.1057
644acdf0a6ac80d10e860553,Manchester,New Hampshire,42.9848,-71.4447
644acdf0a6ac80d10e86053c,Lafayette,Indiana,40.3991,-86.8593
644acdf0a6ac80d10e860529,Santa Cruz,California,36.9789,-122.0346
644acdf0a6ac80d10e860533,Marysville,Washington,48.0809,-122.1561
644acdf0a6ac80d10e860532,Muskegon,Michigan,43.2281,-86.2562
644acdf0a6ac80d10e86052a,Springfield,Illinois,39.7709,-89.654
644acdf0a6ac80d10e860529,Hayward,California,37.6328,-122.0766
644acdf0a6ac80d10e860530,New Bedford,Massachusetts,41.6697,-70.9428
644acdf0a6ac80d10e86053e,Alexandria,Virginia,38.8185,-77.0861
644acdf0a6ac80d10e860551,Paterson,New Jersey,40.9147,-74.1624
644acdf0a6ac80d10e860529,Corona,California,33.8616,-117.5649
644acdf0a6ac80d10e860529,Merced,California,37.3057,-120.4779
644acdf0a6ac80d10e86052e,Warner Robins,Georgia,32.5961,-83.6527
644acdf0a6ac80d10e86052c,Port Arthur,Texas,29.8554,-93.9264
644acdf0a6ac80d10e86052e,Macon,Georgia,32.8065,-83.6974
644acdf0a6ac80d10e86054d,Kansas City,Kansas,39.1235,-94.7443
644acdf0a6ac80d10e860535,Lakewood,Colorado,39.6977,-105.1172
644acdf0a6ac80d10e860529,Sunnyvale,California,37.3836,-122.0255
644acdf0a6ac80d10e86053e,Fredericksburg,Virginia,38.2992,-77.4872
644acdf0a6ac80d10e86052b,Leesburg,Florida,28.7672,-81.8962
644acdf0a6ac80d10e86052a,Champaign,Illinois,40.1142,-88.2737
644acdf0a6ac80d10e86052b,Hollywood,Florida,26.0293,-80.1679
644acdf0a6ac80d10e86052c,Pasadena,Texas,29.6575,-95.1498
644acdf0a6ac80d10e860529,Pomona,California,34.0585,-117.7626
644acdf0a6ac80d10e860529,Escondido,California,33.1348,-117.0723
644acdf0a6ac80d10e86052a,Joliet,Illinois,41.5188,-88.1499
644acdf0a6ac80d10e860546,Lake Charles,Louisiana,30.201,-93.2111
644acdf0a6ac80d10e86052c,Mesquite,Texas,32.7602,-96.5865
644acdf0a6ac80d10e86054b,Mauldin,South Carolina,34.7821,-82.3032
644acdf0a6ac80d10e86052b,Panama City,Florida,30.1995,-85.6003
644acdf0a6ac80d10e860533,Bellevue,Washington,47.5951,-122.1535
644acdf0a6ac80d10e86052a,Naperville,Illinois,41.748,-88.1659
644acdf0a6ac80d10e86052c,Harlingen,Texas,26.1916,-97.6977
644acdf0a6ac80d10e86054a,Tuscaloosa,Alabama,33.2348,-87.5268
644acdf0a6ac80d10e86053c,Elkhart,Indiana,41.6916,-85.9627
644acdf0a6ac80d10e860529,Torrance,California,33.8346,-118.3416
644acdf0a6ac80d10e860528,Binghamton,New York,42.1014,-75.9093
644acdf0a6ac80d10e860546,Houma,Louisiana,29.58,-90.7059
644acdf0a6ac80d10e86054d,Topeka,Kansas,39.0346,-95.6955
644acdf0a6ac80d10e860529,Roseville,California,38.7703,-121.3196
644acdf0a6ac80d10e860529,Fairfield,California,38.2583,-122.0335
644acdf0a6ac80d10e86052c,Tyler,Texas,32.3184,-95.3062
644acdf0a6ac80d10e860529,Fullerton,California,33.8841,-117.9279
644acdf0a6ac80d10e860535,Pueblo,Colorado,38.2701,-104.6114
644acdf0a6ac80d10e86052e,Athens,Georgia,33.9508,-83.3689
644acdf0a6ac80d10e860529,Santa Maria,California,34.9333,-120.4431
644acdf0a6ac80d10e860531,Surprise,Arizona,33.6815,-112.4515
644acdf0a6ac80d10e860556,Charleston,West Virginia,38.3484,-81.6322
644acdf0a6ac80d10e860549,Las Cruces,New Mexico,32.3265,-106.7893
644acdf0a6ac80d10e860546,Metairie,Louisiana,29.9977,-90.178
644acdf0a6ac80d10e860535,Thornton,Colorado,39.9197,-104.9438
644acdf0a6ac80d10e86054d,Olathe,Kansas,38.8833,-94.82
644acdf0a6ac80d10e86053a,Carolina,Puerto Rico,18.4054,-65.9792
644acdf0a6ac80d10e86052e,Gainesville,Georgia,34.2902,-83.8294
644acdf0a6ac80d10e860541,West Valley City,Utah,40.6886,-112.0123
644acdf0a6ac80d10e860529,Orange,California,33.8038,-117.8218
644acdf0a6ac80d10e860532,Warren,Michigan,42.4934,-83.027
644acdf0a6ac80d10e860529,Pasadena,California,34.1597,-118.139
644acdf0a6ac80d10e86052c,Beaumont,Texas,30.0849,-94.1451
644acdf0a6ac80d10e86053d,Burlington,North Carolina,36.076,-79.4685
644acdf0a6ac80d10e86053e,Hampton,Virginia,37.0551,-76.363
644acdf0a6ac80d10e860538,Columbia,Missouri,38.9472,-92.3268
644acdf0a6ac80d10e860531,Yuma,Arizona,32.5995,-114.5491
644acdf0a6ac80d10e860551,Elizabeth,New Jersey,40.6658,-74.1913
644acdf0a6ac80d10e86053f,Racine,Wisconsin,42.7274,-87.8135
644acdf0a6ac80d10e860535,Greeley,Colorado,40.4152,-104.7706
644acdf0a6ac80d10e860533,Kent,Washington,47.3887,-122.2128
644acdf0a6ac80d10e860545,Stamford,Connecticut,41.1039,-73.5585
644acdf0a6ac80d10e86052c,Odessa,Texas,31.8801,-102.3448
644acdf0a6ac80d10e86052a,Bloomington,Illinois,40.4757,-88.9703
644acdf0a6ac80d10e86052b,Miramar,Florida,25.9773,-80.3351
644acdf0a6ac80d10e860535,Grand Junction,Colorado,39.0877,-108.5673
644acdf0a6ac80d10e860532,Sterling Heights,Michigan,42.5809,-83.0305
644acdf0a6ac80d10e86052b,Coral Springs,Florida,26.2702,-80.2591
644acdf0a6ac80d10e860542,Johnson City,Tennessee,36.3406,-82.3806
644acdf0a6ac80d10e86052c,Carrollton,Texas,32.989,-96.8999
644acdf0a6ac80d10e86052c,Midland,Texas,32.0243,-102.1147
644acdf0a6ac80d10e860533,Yakima,Washington,46.5923,-120.5496
644acdf0a6ac80d10e860533,Bellingham,Washington,48.7548,-122.469
644acdf0a6ac80d10e860529,Yuba City,California,39.1357,-121.6383
644acdf0a6ac80d10e860532,South Lyon,Michigan,42.4614,-83.6526
644acdf0a6ac80d10e860529,Santa Clara,California,37.3646,-121.968
644acdf0a6ac80d10e860541,St. George,Utah,37.0758,-113.5752
644acdf0a6ac80d10e86054e,Fort Smith,Arkansas,35.3495,-94.3695
644acdf0a6ac80d10e860529,Simi Valley,California,34.2663,-118.749
644acdf0a6ac80d10e860558,Dover,Delaware,39.161,-75.5202
644acdf0a6ac80d10e860544,Norman,Oklahoma,35.2335,-97.3471
644acdf0a6ac80d10e86052c,Abilene,Texas,32.4543,-99.7384
644acdf0a6ac80d10e860559,Billings,Montana,45.7891,-108.5526
644acdf0a6ac80d10e86053a,Ponce,Puerto Rico,18.0127,-66.6212
644acdf0a6ac80d10e86052b,Lehigh Acres,Florida,26.612,-81.6388
644acdf0a6ac80d10e860534,St. Cloud,Minnesota,45.534,-94.1718
644acdf0a6ac80d10e86053a,Arecibo,Puerto Rico,18.4491,-66.7387
644acdf0a6ac80d10e86053f,Kenosha,Wisconsin,42.5865,-87.8773
644acdf0a6ac80d10e86053d,Greenville,North Carolina,35.5943,-77.376
644acdf0a6ac80d10e860535,Arvada,Colorado,39.832,-105.151
644acdf0a6ac80d10e86052c,Pearland,Texas,29.5581,-95.3218
644acdf0a6ac80d10e860538,Independence,Missouri,39.0871,-94.3501
644acdf0a6ac80d10e86052c,Texas City,Texas,29.4154,-94.9682
644acdf0a6ac80d10e860529,Redding,California,40.5698,-122.365
644acdf0a6ac80d10e86053e,Lynchburg,Virginia,37.4003,-79.1909
644acdf0a6ac80d10e860535,Boulder,Colorado,40.0248,-105.2524
644acdf0a6ac80d10e86054c,Iowa City,Iowa,41.6559,-91.5303
644acdf0a6ac80d10e860534,Rochester,Minnesota,44.0154,-92.478
644acdf0a6ac80d10e860529,Berkeley,California,37.8722,-122.276
644acdf0a6ac80d10e860536,Waldorf,Maryland,38.6085,-76.9194
644acdf0a6ac80d10e86052b,The Villages,Florida,28.9034,-81.9887
644acdf0a6ac80d10e860534,Duluth,Minnesota,46.7756,-92.1393
644acdf0a6ac80d10e860529,East Los Angeles,California,34.0326,-118.1691
644acdf0a6ac80d10e860532,Saginaw,Michigan,43.4199,-83.9501
644acdf0a6ac80d10e860529,Clovis,California,36.8278,-119.683
644acdf0a6ac80d10e860530,Leominster,Massachusetts,42.5209,-71.7717
644acdf0a6ac80d10e86052c,Round Rock,Texas,30.527,-97.6642
644acdf0a6ac80d10e860546,Monroe,Louisiana,32.5185,-92.0774
644acdf0a6ac80d10e860530,Cambridge,Massachusetts,42.3759,-71.1185
644acdf0a6ac80d10e86052b,Clearwater,Florida,27.979,-82.7623
644acdf0a6ac80d10e860529,Seaside,California,36.6224,-121.8199
644acdf0a6ac80d10e860541,West Jordan,Utah,40.6024,-112.0008
644acdf0a6ac80d10e86052c,Richardson,Texas,32.9716,-96.7093
644acdf0a6ac80d10e86052b,West Palm Beach,Florida,26.7469,-80.132
644acdf0a6ac80d10e86052c,Temple,Texas,31.1068,-97.3891
644acdf0a6ac80d10e86055a,Burlington,Vermont,44.4876,-73.2316
644acdf0a6ac80d10e860529,Richmond,California,37.9477,-122.3389
644acdf0a6ac80d10e860535,Westminster,Colorado,39.8837,-105.0624
644acdf0a6ac80d10e86052d,Pottstown,Pennsylvania,40.2508,-75.6445
644acdf0a6ac80d10e86052b,Brandon,Florida,27.9367,-82.3
644acdf0a6ac80d10e86054b,Rock Hill,South Carolina,34.9415,-81.0241
644acdf0a6ac80d10e86054f,Meridian,Idaho,43.6116,-116.3977
644acdf0a6ac80d10e86054f,Coeur d'Alene,Idaho,47.704,-116.7936
644acdf0a6ac80d10e860529,Carlsbad,California,33.1246,-117.2834
644acdf0a6ac80d10e860530,Lowell,Massachusetts,42.6389,-71.3217
644acdf0a6ac80d10e86054c,Waterloo,Iowa,42.4918,-92.3522
644acdf0a6ac80d10e86054b,North Charleston,South Carolina,32.9067,-80.0722
644acdf0a6ac80d10e860529,Gilroy,California,37.0046,-121.5854
644acdf0a6ac80d10e860529,Downey,California,33.9379,-118.1311
644acdf0a6ac80d10e860539,Gresham,Oregon,45.5021,-122.4413
644acdf0a6ac80d10e86052a,Elgin,Illinois,42.0383,-88.324
644acdf0a6ac80d10e860528,Utica,New York,43.0962,-75.2261
644acdf0a6ac80d10e860544,Broken Arrow,Oklahoma,36.038,-95.7806
644acdf0a6ac80d10e860529,Costa Mesa,California,33.6667,-117.9135
644acdf0a6ac80d10e860529,Chico,California,39.7578,-121.8161
644acdf0a6ac80d10e86054c,Sioux City,Iowa,42.4959,-96.3901
644acdf0a6ac80d10e86052c,League City,Texas,29.4874,-95.1087
644acdf0a6ac80d10e86052b,Miami Gardens,Florida,25.9433,-80.2426
644acdf0a6ac80d10e86052b,Pompano Beach,Florida,26.2428,-80.1312
644acdf0a6ac80d10e860529,San Buenaventura,California,34.2741,-119.2314
644acdf0a6ac80d10e860533,Everett,Washington,47.9525,-122.1669
644acdf0a6ac80d10e860529,El Centro,California,32.7865,-115.5595
644acdf0a6ac80d10e86052c,Sugar Land,Texas,29.5935,-95.6358
644acdf0a6ac80d10e860529,El Monte,California,34.0739,-118.0291
644acdf0a6ac80d10e86052c,Lewisville,Texas,33.0454,-96.9815
644acdf0a6ac80d10e860529,West Covina,California,34.0555,-117.9113
644acdf0a6ac80d10e860529,Temecula,California,33.4928,-117.1315
644acdf0a6ac80d10e860539,Bend,Oregon,44.0563,-121.3095
644acdf0a6ac80d10e860536,Salisbury,Maryland,38.3756,-75.5865
644acdf0a6ac80d10e86053d,Jacksonville,North Carolina,34.7289,-77.3941
644acdf0a6ac80d10e860529,Inglewood,California,33.9566,-118.3444
644acdf0a6ac80d10e860532,Dearborn,Michigan,42.3127,-83.213
644acdf0a6ac80d10e860535,Centennial,Colorado,39.5926,-104.8673
644acdf0a6ac80d10e860529,Burbank,California,34.1879,-118.3235
644acdf0a6ac80d10e860537,Sparks,Nevada,39.5736,-119.7161
644acdf0a6ac80d10e86052e,Sandy Springs,Georgia,33.9366,-84.3703
644acdf0a6ac80d10e86053c,Bloomington,Indiana,39.1637,-86.5257
644acdf0a6ac80d10e860541,Logan,Utah,41.7399,-111.8422
644acdf0a6ac80d10e860547,Kailua,Hawaii,21.392,-157.7396
644acdf0a6ac80d10e860529,El Cajon,California,32.8017,-116.9604
644acdf0a6ac80d10e860539,Hillsboro,Oregon,45.5273,-122.936
644acdf0a6ac80d10e86052e,South Fulton,Georgia,33.6273,-84.58
644acdf0a6ac80d10e860533,Renton,Washington,47.4784,-122.1918
644acdf0a6ac80d10e860546,Mandeville,Louisiana,30.3751,-90.0904
644acdf0a6ac80d10e860529,San Mateo,California,37.5522,-122.3121
644acdf0a6ac80d10e860536,Columbia,Maryland,39.2004,-76.859
644acdf0a6ac80d10e860529,Daly City,California,37.6862,-122.4685
644acdf0a6ac80d10e86052b,Davie,Florida,26.0789,-80.287
644acdf0a6ac80d10e860529,Jurupa Valley,California,34.001,-117.4706
644acdf0a6ac80d10e860530,Brockton,Massachusetts,42.0821,-71.0242
644acdf0a6ac80d10e860535,Longmont,Colorado,40.1686,-105.1005
644acdf0a6ac80d10e860529,Rialto,California,34.1175,-117.3892
644acdf0a6ac80d10e86053a,San Germán,Puerto Rico,18.0827,-67.046
644acdf0a6ac80d10e86053f,Eau Claire,Wisconsin,44.8197,-91.4948
644acdf0a6ac80d10e860529,Turlock,California,37.5053,-120.8588
644acdf0a6ac80d10e860529,Norwalk,California,33.9069,-118.0829
644acdf0a6ac80d10e860535,Highlands Ranch,Colorado,39.5419,-104.9708
644acdf0a6ac80d10e86052c,Allen,Texas,33.1088,-96.6735
644acdf0a6ac80d10e86052c,Wichita Falls,Texas,33.9072,-98.5291
644acdf0a6ac80d10e860549,Rio Rancho,New Mexico,35.2873,-106.6982
644acdf0a6ac80d10e860529,Vacaville,California,38.3587,-121.9673
644acdf0a6ac80d10e860533,Spokane Valley,Washington,47.6626,-117.2346
644acdf0a6ac80d10e86053e,Charlottesville,Virginia,38.0375,-78.4855
644acdf0a6ac80d10e86054f,Idaho Falls,Idaho,43.4871,-112.0362
644acdf0a6ac80d10e860529,Menifee,California,33.6909,-117.1849
644acdf0a6ac80d10e860538,Lee's Summit,Missouri,38.9171,-94.3816
644acdf0a6ac80d10e860530,Quincy,Massachusetts,42.2506,-71.0187
644acdf0a6ac80d10e86052c,San Angelo,Texas,31.4424,-100.4504
644acdf0a6ac80d10e860530,Lynn,Massachusetts,42.4781,-70.9664
644acdf0a6ac80d10e860532,Holland,Michigan,42.7677,-86.0984
644acdf0a6ac80d10e860533,Federal Way,Washington,47.3091,-122.3358
644acdf0a6ac80d10e860529,Manteca,California,37.7927,-121.2264
644acdf0a6ac80d10e860535,Lafayette,Colorado,39.9946,-105.0998
644acdf0a6ac80d10e860549,Santa Fe,New Mexico,35.6619,-105.9819
644acdf0a6ac80d10e860529,Hesperia,California,34.3975,-117.3147
644acdf0a6ac80d10e86053f,La Crosse,Wisconsin,43.8241,-91.2268
644acdf0a6ac80d10e86052b,Riverview,Florida,27.8227,-82.3023
644acdf0a6ac80d10e860542,Kingsport,Tennessee,36.5224,-82.5454
644acdf0a6ac80d10e86052c,Edinburg,Texas,26.3196,-98.1597
644acdf0a6ac80d10e860529,Vista,California,33.1896,-117.2386
644acdf0a6ac80d10e860543,Bowling Green,Kentucky,36.9716,-86.4378
644acdf0a6ac80d10e86053c,Carmel,Indiana,39.965,-86.146
644acdf0a6ac80d10e86052c,Longview,Texas,32.5193,-94.7622
644acdf0a6ac80d10e860529,Tracy,California,37.7269,-121.4523
644acdf0a6ac80d10e860531,Prescott Valley,Arizona,34.598,-112.3185
644acdf0a6ac80d10e860539,Beaverton,Oregon,45.4779,-122.8168
644acdf0a6ac80d10e860553,Portsmouth,New Hampshire,43.058,-70.7826
644acdf0a6ac80d10e86053e,Portsmouth,Virginia,36.8468,-76.354
644acdf0a6ac80d10e86053c,Fishers,Indiana,39.9588,-85.9659
644acdf0a6ac80d10e860541,Orem,Utah,40.2981,-111.6994
644acdf0a6ac80d10e860541,Sandy,Utah,40.5709,-111.8506
644acdf0a6ac80d10e86052b,Sunrise,Florida,26.1547,-80.2997
644acdf0a6ac80d10e860531,San Tan Valley,Arizona,33.1786,-111.5629
644acdf0a6ac80d10e860529,Compton,California,33.893,-118.2274
644acdf0a6ac80d10e860529,Arden-Arcade,California,38.6017,-121.3845
644acdf0a6ac80d10e860529,Hanford,California,36.3274,-119.6549
644acdf0a6ac80d10e86052b,Boca Raton,Florida,26.3752,-80.108
644acdf0a6ac80d10e86053b,Middletown,Ohio,39.5033,-84.3659
644acdf0a6ac80d10e860532,Livonia,Michigan,42.3972,-83.3733
644acdf0a6ac80d10e860529,Carson,California,33.8374,-118.2559
644acdf0a6ac80d10e86054d,Lawrence,Kansas,38.9597,-95.2642
644acdf0a6ac80d10e860546,Slidell,Louisiana,30.2887,-89.7828
644acdf0a6ac80d10e86053e,Blacksburg,Virginia,37.23,-80.4279
644acdf0a6ac80d10e860529,San Marcos,California,33.135,-117.1743
644acdf0a6ac80d10e860531,Goodyear,Arizona,33.2614,-112.3622
644acdf0a6ac80d10e860544,Edmond,Oklahoma,35.6689,-97.416
644acdf0a6ac80d10e86053a,Mayagüez,Puerto Rico,18.2003,-67.1397
644acdf0a6ac80d10e860530,Fall River,Massachusetts,41.7136,-71.1015
644acdf0a6ac80d10e860529,South Gate,California,33.9447,-118.1926
644acdf0a6ac80d10e86053e,Suffolk,Virginia,36.6953,-76.6398
644acdf0a6ac80d10e86053c,Terre Haute,Indiana,39.466,-87.3751
644acdf0a6ac80d10e860559,Missoula,Montana,46.8751,-114.0214
644acdf0a6ac80d10e860529,Santa Monica,California,34.0235,-118.481
644acdf0a6ac80d10e86052e,Roswell,Georgia,34.0391,-84.3513
644acdf0a6ac80d10e860551,Vineland,New Jersey,39.4653,-74.9981
644acdf0a6ac80d10e86052b,Plantation,Florida,26.1259,-80.2617
644acdf0a6ac80d10e86052b,Alafaya,Florida,28.528,-81.1868
644acdf0a6ac80d10e860533,Kirkland,Washington,47.697,-122.2057
644acdf0a6ac80d10e86054a,Hoover,Alabama,33.3763,-86.8068
644acdf0a6ac80d10e860529,Westminster,California,33.7523,-117.9938
644acdf0a6ac80d10e860544,Lawton,Oklahoma,34.6175,-98.4202
644acdf0a6ac80d10e860529,San Leandro,California,37.7074,-122.1599
644acdf0a6ac80d10e86054a,Auburn,Alabama,32.6087,-85.4903
644acdf0a6ac80d10e860545,Norwalk,Connecticut,41.1144,-73.4215
644acdf0a6ac80d10e860538,O'Fallon,Missouri,38.785,-90.7175
644acdf0a6ac80d10e860529,Chino,California,33.9836,-117.6654
644acdf0a6ac80d10e860536,Germantown,Maryland,39.1755,-77.2643
644acdf0a6ac80d10e860553,Dover,New Hampshire,43.1887,-70.8845
644acdf0a6ac80d10e860555,Bismarck,North Dakota,46.8143,-100.7694
644acdf0a6ac80d10e86052a,Waukegan,Illinois,42.3698,-87.8716
644acdf0a6ac80d10e860531,Buckeye,Arizona,33.4314,-112.6429
644acdf0a6ac80d10e86052b,Town 'n' Country,Florida,28.0106,-82.5763
644acdf0a6ac80d10e860551,Clifton,New Jersey,40.863,-74.1575
644acdf0a6ac80d10e860534,Bloomington,Minnesota,44.8306,-93.3151
644acdf0a6ac80d10e86054b,Mount Pleasant,South Carolina,32.8537,-79.8203
644acdf0a6ac80d10e86054b,Florence,South Carolina,34.178,-79.7898
644acdf0a6ac80d10e860530,Newton,Massachusetts,42.3316,-71.2085
644acdf0a6ac80d10e86052d,State College,Pennsylvania,40.7909,-77.8567
644acdf0a6ac80d10e860529,Livermore,California,37.6868,-121.7607
644acdf0a6ac80d10e860557,Rapid City,South Dakota,44.0716,-103.2204
644acdf0a6ac80d10e86052a,Decatur,Illinois,39.8557,-88.9342
644acdf0a6ac80d10e86052e,Dalton,Georgia,34.769,-84.972
644acdf0a6ac80d10e86052c,Conroe,Texas,30.3238,-95.4824
644acdf0a6ac80d10e860529,Hawthorne,California,33.9147,-118.3476
644acdf0a6ac80d10e860530,Lawrence,Massachusetts,42.7002,-71.1626
644acdf0a6ac80d10e86052c,New Braunfels,Texas,29.6994,-98.1148
644acdf0a6ac80d10e860529,Citrus Heights,California,38.6948,-121.288
644acdf0a6ac80d10e860532,Jackson,Michigan,42.2431,-84.4038
644acdf0a6ac80d10e860529,Whittier,California,33.9678,-118.0188
644acdf0a6ac80d10e86053c,Muncie,Indiana,40.1989,-85.395
644acdf0a6ac80d10e860532,Troy,Michigan,42.5817,-83.1457
644acdf0a6ac80d10e86052b,Homosassa Springs,Florida,28.8119,-82.5392
644acdf0a6ac80d10e860532,Port Huron,Michigan,42.9821,-82.4388
644acdf0a6ac80d10e860529,Napa,California,38.2975,-122.301
644acdf0a6ac80d10e86052b,Deerfield Beach,Florida,26.305,-80.1277
644acdf0a6ac80d10e86054e,Springdale,Arkansas,36.1901,-94.1574
644acdf0a6ac80d10e860529,Newport Beach,California,33.6151,-117.8668
644acdf0a6ac80d10e86053c,Anderson,Indiana,40.0891,-85.6892
644acdf0a6ac80d10e860529,San Ramon,California,37.7624,-121.9365
644acdf0a6ac80d10e860529,Lake Forest,California,33.6605,-117.6714
644acdf0a6ac80d10e86052c,Mission,Texas,26.2039,-98.3256
644acdf0a6ac80d10e860533,Auburn,Washington,47.3039,-122.2108
644acdf0a6ac80d10e860534,Brooklyn Park,Minnesota,45.1112,-93.3505
644acdf0a6ac80d10e86052c,Bryan,Texas,30.665,-96.3807
644acdf0a6ac80d10e86053b,Springfield,Ohio,39.93,-83.7959
644acdf0a6ac80d10e860550,Hattiesburg,Mississippi,31.3074,-89.317
644acdf0a6ac80d10e860532,Westland,Michigan,42.3192,-83.3805
644acdf0a6ac80d10e86052a,Cicero,Illinois,41.8445,-87.7593
644acdf0a6ac80d10e86052e,Albany,Georgia,31.5776,-84.1762
644acdf0a6ac80d10e86052b,Fort Myers,Florida,26.6194,-81.8302
644acdf0a6ac80d10e86052b,Pine Hills,Florida,28.5818,-81.4692
644acdf0a6ac80d10e86052c,Atascocita,Texas,29.9777,-95.1953
644acdf0a6ac80d10e860529,Buena Park,California,33.8572,-118.0046
644acdf0a6ac80d10e860529,Redwood City,California,37.5025,-122.2253
644acdf0a6ac80d10e860532,Farmington Hills,Michigan,42.486,-83.3771
644acdf0a6ac80d10e86052a,Alton,Illinois,38.9037,-90.152
644acdf0a6ac80d10e86052b,Melbourne,Florida,28.1086,-80.6627
644acdf0a6ac80d10e86052b,Miami Beach,Florida,25.8171,-80.1396
644acdf0a6ac80d10e860529,Alhambra,California,34.084,-118.1355
644acdf0a6ac80d10e86053e,Williamsburg,Virginia,37.2693,-76.7076
644acdf0a6ac80d10e860529,Madera,California,36.963,-120.0778
644acdf0a6ac80d10e860540,Warwick,Rhode Island,41.7062,-71.4334
644acdf0a6ac80d10e860540,Cranston,Rhode Island,41.7658,-71.4858
644acdf0a6ac80d10e86052c,Baytown,Texas,29.7587,-94.9671
644acdf0a6ac80d10e86052b,Largo,Florida,27.9088,-82.7712
644acdf0a6ac80d10e860536,Silver Spring,Maryland,39.0028,-77.0207
644acdf0a6ac80d10e860529,Lakewood,California,33.8471,-118.1222
644acdf0a6ac80d10e860529,Mountain View,California,37.4001,-122.0796
644acdf0a6ac80d10e86052a,Kankakee,Illinois,41.102,-87.8643
644acdf0a6ac80d10e86052e,Johns Creek,Georgia,34.0333,-84.2027
644acdf0a6ac80d10e860531,Flagstaff,Arizona,35.1872,-111.6194
644acdf0a6ac80d10e860542,Franklin,Tennessee,35.92,-86.8516
644acdf0a6ac80d10e860538,Joplin,Missouri,37.0757,-94.5018
644acdf0a6ac80d10e86053b,Parma,Ohio,41.3843,-81.7286
644acdf0a6ac80d10e860541,Layton,Utah,41.077,-111.962
644acdf0a6ac80d10e860528,New Rochelle,New York,40.9304,-73.7836
644acdf0a6ac80d10e86054b,Anderson,South Carolina,34.5211,-82.6478
644acdf0a6ac80d10e86052d,Lebanon,Pennsylvania,40.3412,-76.4228
644acdf0a6ac80d10e860530,Somerville,Massachusetts,42.3908,-71.1014
644acdf0a6ac80d10e86053a,Yauco,Puerto Rico,18.0344,-66.8615
644acdf0a6ac80d10e860538,St. Joseph,Missouri,39.7598,-94.821
644acdf0a6ac80d10e860534,Plymouth,Minnesota,45.0225,-93.4617
644acdf0a6ac80d10e860529,Tustin,California,33.7311,-117.8107
644acdf0a6ac80d10e86052b,Zephyrhills,Florida,28.2409,-82.1797
644acdf0a6ac80d10e860529,Milpitas,California,37.4336,-121.8921
644acdf0a6ac80d10e86054a,Florence,Alabama,34.8303,-87.6655
644acdf0a6ac80d10e860529,Pleasanton,California,37.6663,-121.8805
644acdf0a6ac80d10e86052b,Boynton Beach,Florida,26.5281,-80.0811
644acdf0a6ac80d10e86052c,Texarkana,Texas,33.45,-94.0847
644acdf0a6ac80d10e860529,Folsom,California,38.6668,-121.1422
644acdf0a6ac80d10e860529,Bellflower,California,33.888,-118.1271
644acdf0a6ac80d10e86052c,Pharr,Texas,26.1685,-98.1904
644acdf0a6ac80d10e86052b,Homestead,Florida,25.4665,-80.4472
644acdf0a6ac80d10e86052e,Valdosta,Georgia,30.8502,-83.2788
644acdf0a6ac80d10e860529,Upland,California,34.1178,-117.6604
644acdf0a6ac80d10e86052a,Evanston,Illinois,42.0464,-87.6943
644acdf0a6ac80d10e86053b,Newark,Ohio,40.0706,-82.425
644acdf0a6ac80d10e860543,Elizabethtown,Kentucky,37.7031,-85.8773
644acdf0a6ac80d10e86052b,St. Augustine,Florida,29.8976,-81.31
644acdf0a6ac80d10e860529,Rancho Cordova,California,38.5737,-121.2527
644acdf0a6ac80d10e860529,Alameda,California,37.7668,-122.267
644acdf0a6ac80d10e860529,Chino Hills,California,33.9508,-117.7254
644acdf0a6ac80d10e860529,Perris,California,33.7898,-117.2233
644acdf0a6ac80d10e86052a,Schaumburg,Illinois,42.0308,-88.0838
644acdf0a6ac80d10e86052b,Kendall,Florida,25.6697,-80.3556
644acdf0a6ac80d10e860529,Camarillo,California,34.223,-119.0321
644acdf0a6ac80d10e86054a,Anniston,Alabama,33.6712,-85.8135
644acdf0a6ac80d10e86054b,Sumter,South Carolina,33.9392,-80.393
644acdf0a6ac80d10e86054e,Jonesboro,Arkansas,35.8212,-90.6791
644acdf0a6ac80d10e86053c,Hammond,Indiana,41.6168,-87.4909
644acdf0a6ac80d10e860529,Carmichael,California,38.6318,-121.3263
644acdf0a6ac80d10e86052a,Arlington Heights,Illinois,42.0955,-87.9826
644acdf0a6ac80d10e860556,Morgantown,West Virginia,39.6383,-79.9464
644acdf0a6ac80d10e860532,Wyoming,Michigan,42.8908,-85.7066
644acdf0a6ac80d10e86055b,Cheyenne,Wyoming,41.135,-104.7902
644acdf0a6ac80d10e860533,Pasco,Washington,46.2506,-119.1305
644acdf0a6ac80d10e860529,Watsonville,California,36.9206,-121.7708
644acdf0a6ac80d10e860532,Southfield,Michigan,42.4765,-83.2605
644acdf0a6ac80d10e86053f,Wausau,Wisconsin,44.962,-89.6459
644acdf0a6ac80d10e860532,Rochester Hills,Michigan,42.6645,-83.1563
644acdf0a6ac80d10e860535,Loveland,Colorado,40.4166,-105.0623
644acdf0a6ac80d10e860546,Alexandria,Louisiana,31.2923,-92.4702
644acdf0a6ac80d10e860529,Pittsburg,California,38.0182,-121.8965
644acdf0a6ac80d10e860546,Hammond,Louisiana,30.5061,-90.4563
644acdf0a6ac80d10e860541,South Jordan,Utah,40.557,-111.9784
644acdf0a6ac80d10e860532,Battle Creek,Michigan,42.2985,-85.2296
644acdf0a6ac80d10e86052d,Bethlehem,Pennsylvania,40.6266,-75.3679
644acdf0a6ac80d10e86053a,Fajardo,Puerto Rico,18.3331,-65.6589
644acdf0a6ac80d10e860529,Davis,California,38.5553,-121.737
644acdf0a6ac80d10e860529,Apple Valley,California,34.5352,-117.2109
644acdf0a6ac80d10e860540,Pawtucket,Rhode Island,41.8744,-71.3743
644acdf0a6ac80d10e860556,Wheeling,West Virginia,40.0752,-80.6951
644acdf0a6ac80d10e86052c,Flower Mound,Texas,33.0343,-97.1146
644acdf0a6ac80d10e86053e,Harrisonburg,Virginia,38.4362,-78.8735
644acdf0a6ac80d10e86052c,Cedar Park,Texas,30.5105,-97.8197
644acdf0a6ac80d10e86053f,Oshkosh,Wisconsin,44.0227,-88.5619
644acdf0a6ac80d10e86053e,Winchester,Virginia,39.1735,-78.1746
644acdf0a6ac80d10e86053a,Caguas,Puerto Rico,18.2319,-66.0388
644acdf0a6ac80d10e860536,Ellicott City,Maryland,39.2774,-76.8345
644acdf0a6ac80d10e86054f,Pocatello,Idaho,42.8724,-112.4647
644acdf0a6ac80d10e86054b,Hilton Head Island,South Carolina,32.1896,-80.7499
644acdf0a6ac80d10e860545,New Britain,Connecticut,41.6759,-72.7862
644acdf0a6ac80d10e86053b,Mansfield,Ohio,40.7656,-82.5275
644acdf0a6ac80d10e860534,Woodbury,Minnesota,44.9057,-92.923
644acdf0a6ac80d10e86052b,Lauderhill,Florida,26.1605,-80.2241
644acdf0a6ac80d10e860541,Lehi,Utah,40.4136,-111.8725
644acdf0a6ac80d10e86052a,Bolingbrook,Illinois,41.6901,-88.1021
644acdf0a6ac80d10e86053e,Dale City,Virginia,38.6473,-77.3459
644acdf0a6ac80d10e86052c,Missouri City,Texas,29.563,-95.5365
644acdf0a6ac80d10e86052c,Lake Jackson,Texas,29.0516,-95.4521
644acdf0a6ac80d10e86052d,Altoona,Pennsylvania,40.5082,-78.4007
644acdf0a6ac80d10e86052b,Doral,Florida,25.8152,-80.3565
644acdf0a6ac80d10e860543,Owensboro,Kentucky,37.7575,-87.1172
644acdf0a6ac80d10e86053e,Centreville,Virginia,38.839,-77.4389
644acdf0a6ac80d10e860528,Mount Vernon,New York,40.9136,-73.8291
644acdf0a6ac80d10e860529,Baldwin Park,California,34.0829,-117.9722
644acdf0a6ac80d10e860535,Broomfield,Colorado,39.9542,-105.0526
644acdf0a6ac80d10e860529,Redlands,California,34.0512,-117.1712
644acdf0a6ac80d10e860542,Cleveland,Tennessee,35.1817,-84.8707
644acdf0a6ac80d10e86054a,Dothan,Alabama,31.2336,-85.407
644acdf0a6ac80d10e860551,Camden,New Jersey,39.9361,-75.1073
644acdf0a6ac80d10e860533,Redmond,Washington,47.6763,-122.1169
644acdf0a6ac80d10e860530,Framingham,Massachusetts,42.3085,-71.4368
644acdf0a6ac80d10e860542,Jackson,Tennessee,35.6538,-88.8354
644acdf0a6ac80d10e86053f,Janesville,Wisconsin,42.6854,-89.0135
644acdf0a6ac80d10e86053a,Juana Díaz,Puerto Rico,18.0532,-66.5044
644acdf0a6ac80d10e86052c,Mansfield,Texas,32.569,-97.1213
644acdf0a6ac80d10e86053f,Waukesha,Wisconsin,43.0087,-88.2464
644acdf0a6ac80d10e86052b,Tamarac,Florida,26.2056,-80.2539
644acdf0a6ac80d10e860533,Wenatchee,Washington,47.436,-120.3295
644acdf0a6ac80d10e86052b,Daytona Beach,Florida,29.1995,-81.0982
644acdf0a6ac80d10e860535,Castle Rock,Colorado,39.3763,-104.8535
644acdf0a6ac80d10e860529,Redondo Beach,California,33.8577,-118.3765
644acdf0a6ac80d10e860558,Wilmington,Delaware,39.7415,-75.5416
644acdf0a6ac80d10e86052c,San Marcos,Texas,29.8734,-97.9356
644acdf0a6ac80d10e860529,Union City,California,37.6032,-122.0181
644acdf0a6ac80d10e860536,Eldersburg,Maryland,39.4041,-76.9528
644acdf0a6ac80d10e86054e,Conway,Arkansas,35.0753,-92.4692
644acdf0a6ac80d10e860551,Bayonne,New Jersey,40.6668,-74.1158
644acdf0a6ac80d10e86053a,Guaynabo,Puerto Rico,18.3832,-66.1134
644acdf0a6ac80d10e860529,Rocklin,California,38.8075,-121.2489
644acdf0a6ac80d10e860551,Passaic,New Jersey,40.8574,-74.1282
644acdf0a6ac80d10e86053f,Sheboygan,Wisconsin,43.7403,-87.7316
644acdf0a6ac80d10e860531,Casas Adobes,Arizona,32.3423,-111.0113
644acdf0a6ac80d10e860538,St. Charles,Missouri,38.7954,-90.5157
644acdf0a6ac80d10e860534,Maple Grove,Minnesota,45.1089,-93.4626
644acdf0a6ac80d10e860529,Walnut Creek,California,37.9024,-122.0399
644acdf0a6ac80d10e860529,Dublin,California,37.7161,-121.8963
644acdf0a6ac80d10e86052c,North Richland Hills,Texas,32.8604,-97.218
644acdf0a6ac80d10e86053c,Gary,Indiana,41.5905,-87.3473
644acdf0a6ac80d10e860536,Glen Burnie,Maryland,39.156,-76.6071
644acdf0a6ac80d10e860542,Bristol,Tennessee,36.5572,-82.2154
644acdf0a6ac80d10e86054a,Decatur,Alabama,34.5731,-86.9905
644acdf0a6ac80d10e86053f,West Bend,Wisconsin,43.4173,-88.1818
644acdf0a6ac80d10e860529,Lodi,California,38.1218,-121.2932
644acdf0a6ac80d10e86053b,Lima,Ohio,40.741,-84.112
644acdf0a6ac80d10e86053a,Florida,Puerto Rico,18.3643,-66.5611
644acdf0a6ac80d10e860534,Lakeville,Minnesota,44.6774,-93.252
644acdf0a6ac80d10e860534,Blaine,Minnesota,45.1696,-93.2077
644acdf0a6ac80d10e86052b,Poinciana,Florida,28.1217,-81.4821
644acdf0a6ac80d10e860551,East Orange,New Jersey,40.7651,-74.2117
644acdf0a6ac80d10e86053c,Noblesville,Indiana,40.0355,-86.0042
644acdf0a6ac80d10e860536,Gaithersburg,Maryland,39.1346,-77.2131
644acdf0a6ac80d10e860529,Lake Elsinore,California,33.6847,-117.3344
644acdf0a6ac80d10e860529,Palo Alto,California,37.3905,-122.1468
644acdf0a6ac80d10e860529,Eastvale,California,33.9617,-117.5803
644acdf0a6ac80d10e860529,Tulare,California,36.1995,-119.34
644acdf0a6ac80d10e86054e,Rogers,Arkansas,36.317,-94.1531
644acdf0a6ac80d10e860529,Yorba Linda,California,33.889,-117.7714
644acdf0a6ac80d10e860556,Parkersburg,West Virginia,39.2623,-81.542
644acdf0a6ac80d10e860534,Eagan,Minnesota,44.817,-93.1638
644acdf0a6ac80d10e86052b,Weston,Florida,26.1006,-80.4054
644acdf0a6ac80d10e860533,Longview,Washington,46.1461,-122.963
644acdf0a6ac80d10e860532,Bay City,Michigan,43.5902,-83.8887
644acdf0a6ac80d10e86054c,Dubuque,Iowa,42.5002,-90.707
644acdf0a6ac80d10e860551,Union City,New Jersey,40.7675,-74.0323
644acdf0a6ac80d10e860529,Porterville,California,36.0643,-119.0338
644acdf0a6ac80d10e860533,Mount Vernon,Washington,48.4203,-122.3115
644acdf0a6ac80d10e86052a,Palatine,Illinois,42.118,-88.043
644acdf0a6ac80d10e860529,El Paso de Robles,California,35.6394,-120.656
644acdf0a6ac80d10e86054c,West Des Moines,Iowa,41.5521,-93.7806
644acdf0a6ac80d10e860529,Lynwood,California,33.924,-118.2016
644acdf0a6ac80d10e86052a,Skokie,Illinois,42.036,-87.74
644acdf0a6ac80d10e86052c,Sherman,Texas,33.6273,-96.6221
644acdf0a6ac80d10e860536,Rockville,Maryland,39.0834,-77.1553
644acdf0a6ac80d10e860530,Haverhill,Massachusetts,42.7838,-71.0871
644acdf0a6ac80d10e86052d,Hanover,Pennsylvania,39.8118,-76.9836
644acdf0a6ac80d10e86054d,Shawnee,Kansas,39.0158,-94.8076
644acdf0a6ac80d10e86052e,Rome,Georgia,34.2662,-85.1863
644acdf0a6ac80d10e860528,Schenectady,New York,42.8025,-73.9275
644acdf0a6ac80d10e860533,South Hill,Washington,47.1198,-122.2853
644acdf0a6ac80d10e86052a,DeKalb,Illinois,41.9314,-88.7481
644acdf0a6ac80d10e860529,Petaluma,California,38.2423,-122.6266
644acdf0a6ac80d10e860533,Sammamish,Washington,47.6017,-122.0416
644acdf0a6ac80d10e86052c,Georgetown,Texas,30.666,-97.6966
644acdf0a6ac80d10e86052a,Carbondale,Illinois,37.7221,-89.2237
644acdf0a6ac80d10e86052b,Delray Beach,Florida,26.455,-80.0905
644acdf0a6ac80d10e860536,Dundalk,Maryland,39.2704,-76.4942
644acdf0a6ac80d10e860546,Kenner,Louisiana,30.0109,-90.2549
644acdf0a6ac80d10e860539,Albany,Oregon,44.6272,-123.0965
644acdf0a6ac80d10e86054c,Ankeny,Iowa,41.7288,-93.6031
644acdf0a6ac80d10e860529,South San Francisco,California,37.6538,-122.4196
644acdf0a6ac80d10e860529,Castro Valley,California,37.7088,-122.0626
644acdf0a6ac80d10e860536,Bethesda,Maryland,38.9866,-77.1188
644acdf0a6ac80d10e860528,Saratoga Springs,New York,43.0674,-73.7775
644acdf0a6ac80d10e860539,Corvallis,Oregon,44.5698,-123.2779
644acdf0a6ac80d10e860528,Brentwood,New York,40.7839,-73.2522
644acdf0a6ac80d10e86054c,Ames,Iowa,42.0256,-93.6217
644acdf0a6ac80d10e860528,Glens Falls,New York,43.3109,-73.6458
644acdf0a6ac80d10e86053c,Michigan City,Indiana,41.7092,-86.869
644acdf0a6ac80d10e86052c,Victoria,Texas,28.8287,-96.9849
644acdf0a6ac80d10e860530,Malden,Massachusetts,42.4305,-71.0576
644acdf0a6ac80d10e860556,Weirton,West Virginia,40.406,-80.5671
644acdf0a6ac80d10e860532,Novi,Michigan,42.4786,-83.4893
644acdf0a6ac80d10e86053a,Guayama,Puerto Rico,17.9743,-66.1104
644acdf0a6ac80d10e86052e,Alpharetta,Georgia,34.0704,-84.2738
644acdf0a6ac80d10e86052b,Wesley Chapel,Florida,28.2106,-82.3238
644acdf0a6ac80d10e860530,Waltham,Massachusetts,42.3889,-71.2423
644acdf0a6ac80d10e860529,Laguna Niguel,California,33.5275,-117.705
644acdf0a6ac80d10e860529,San Clemente,California,33.4499,-117.6102
644acdf0a6ac80d10e86054e,North Little Rock,Arkansas,34.7807,-92.2371
644acdf0a6ac80d10e860552,Fairbanks,Alaska,64.8353,-147.6533
644acdf0a6ac80d10e860529,Florence-Graham,California,33.9682,-118.2447
644acdf0a6ac80d10e860534,Eden Prairie,Minnesota,44.8488,-93.4595
644acdf0a6ac80d10e860551,Twin Rivers,New Jersey,40.2631,-74.4917
644acdf0a6ac80d10e86052c,Pflugerville,Texas,30.4515,-97.6018
644acdf0a6ac80d10e86055b,Casper,Wyoming,42.842,-106.3208
644acdf0a6ac80d10e860534,Burnsville,Minnesota,44.7648,-93.2793
644acdf0a6ac80d10e860555,Grand Forks,North Dakota,47.9214,-97.0884
644acdf0a6ac80d10e860529,Brentwood,California,37.9356,-121.719
644acdf0a6ac80d10e860541,Millcreek,Utah,40.6892,-111.8292
644acdf0a6ac80d10e860528,Elmira,New York,42.0938,-76.8097
644acdf0a6ac80d10e86052b,Sebring,Florida,27.477,-81.453
644acdf0a6ac80d10e860529,La Habra,California,33.9282,-117.9515
644acdf0a6ac80d10e860534,Coon Rapids,Minnesota,45.1755,-93.3094
644acdf0a6ac80d10e860546,Bossier City,Louisiana,32.5224,-93.6668
644acdf0a6ac80d10e86053b,Hamilton,Ohio,39.3939,-84.5653
644acdf0a6ac80d10e860532,Taylor,Michigan,42.226,-83.2688
644acdf0a6ac80d10e860533,Lakewood,Washington,47.1628,-122.5299
644acdf0a6ac80d10e86053c,Greenwood,Indiana,39.6019,-86.1073
644acdf0a6ac80d10e860548,Bellevue,Nebraska,41.1485,-95.939
644acdf0a6ac80d10e860529,Montebello,California,34.0155,-118.1108
644acdf0a6ac80d10e860544,Moore,Oklahoma,35.3293,-97.4757
644acdf0a6ac80d10e86054c,Council Bluffs,Iowa,41.2369,-95.8516
644acdf0a6ac80d10e86052c,Rowlett,Texas,32.9155,-96.5489
644acdf0a6ac80d10e86052c,Spring,Texas,30.0613,-95.383
644acdf0a6ac80d10e86052b,Port Charlotte,Florida,26.9918,-82.114
644acdf0a6ac80d10e86053e,Reston,Virginia,38.9497,-77.3461
644acdf0a6ac80d10e860529,Pico Rivera,California,33.9901,-118.0888
644acdf0a6ac80d10e860532,Dearborn Heights,Michigan,42.3164,-83.2769
644acdf0a6ac80d10e86052b,Port Orange,Florida,29.1085,-81.0137
644acdf0a6ac80d10e860529,Encinitas,California,33.0492,-117.261
644acdf0a6ac80d10e860539,Springfield,Oregon,44.0538,-122.9811
644acdf0a6ac80d10e860559,Great Falls,Montana,47.5022,-111.2996
644acdf0a6ac80d10e86053d,Rocky Mount,North Carolina,35.9685,-77.804
644acdf0a6ac80d10e860535,Commerce City,Colorado,39.8641,-104.843
644acdf0a6ac80d10e860532,Pontiac,Michigan,42.6493,-83.2878
644acdf0a6ac80d10e86052b,The Hammocks,Florida,25.67,-80.4482
644acdf0a6ac80d10e86052b,Wellington,Florida,26.6461,-80.2699
644acdf0a6ac80d10e860529,San Rafael,California,37.9905,-122.5221
644acdf0a6ac80d10e860529,Monterey Park,California,34.0497,-118.1326
644acdf0a6ac80d10e860529,La Mesa,California,32.7703,-117.0204
644acdf0a6ac80d10e860529,Woodland,California,38.6712,-121.75
644acdf0a6ac80d10e86052e,Marietta,Georgia,33.9533,-84.5422
644acdf0a6ac80d10e86053d,Chapel Hill,North Carolina,35.9271,-79.0391
644acdf0a6ac80d10e860529,Gardena,California,33.8943,-118.3072
644acdf0a6ac80d10e860545,Meriden,Connecticut,41.5369,-72.7946
644acdf0a6ac80d10e860545,Bristol,Connecticut,41.6812,-72.9407
644acdf0a6ac80d10e860530,Revere,Massachusetts,42.4189,-71.004
644acdf0a6ac80d10e860530,Medford,Massachusetts,42.4234,-71.1087
644acdf0a6ac80d10e86052b,Palm Harbor,Florida,28.0847,-82.7481
644acdf0a6ac80d10e860529,Cupertino,California,37.3168,-122.0466
644acdf0a6ac80d10e86052b,Jupiter,Florida,26.92,-80.1128
644acdf0a6ac80d10e860542,Hendersonville,Tennessee,36.3063,-86.5997
644acdf0a6ac80d10e86052b,North Miami,Florida,25.9008,-80.1686
644acdf0a6ac80d10e86052a,Des Plaines,Illinois,42.0345,-87.9008
644acdf0a6ac80d10e860541,Taylorsville,Utah,40.6569,-111.9493
644acdf0a6ac80d10e86053f,West Allis,Wisconsin,43.0068,-88.0296
644acdf0a6ac80d10e86052b,Sanford,Florida,28.7891,-81.2757
644acdf0a6ac80d10e86053d,Huntersville,North Carolina,35.406,-80.8716
644acdf0a6ac80d10e86052c,Euless,Texas,32.8508,-97.08
644acdf0a6ac80d10e860533,Richland,Washington,46.2824,-119.2939
644acdf0a6ac80d10e860529,Santee,California,32.8554,-116.9851
644acdf0a6ac80d10e860528,White Plains,New York,41.022,-73.7547
644acdf0a6ac80d10e860551,Hoboken,New Jersey,40.7452,-74.0281
644acdf0a6ac80d10e86053c,Kokomo,Indiana,40.464,-86.1277
644acdf0a6ac80d10e860530,Taunton,Massachusetts,41.9036,-71.0943
644acdf0a6ac80d10e860532,St. Clair Shores,Michigan,42.4925,-82.8961
644acdf0a6ac80d10e860536,Towson,Maryland,39.3944,-76.619
644acdf0a6ac80d10e86054f,Caldwell,Idaho,43.6453,-116.6594
644acdf0a6ac80d10e860529,South Whittier,California,33.9336,-118.0312
644acdf0a6ac80d10e86052a,Orland Park,Illinois,41.6075,-87.8619
644acdf0a6ac80d10e86052e,Stonecrest,Georgia,33.6842,-84.1372
644acdf0a6ac80d10e86052b,Palm Beach Gardens,Florida,26.8466,-80.1679
644acdf0a6ac80d10e860532,Royal Oak,Michigan,42.5084,-83.1539
644acdf0a6ac80d10e86052b,Margate,Florida,26.2466,-80.2119
644acdf0a6ac80d10e860538,Blue Springs,Missouri,39.0124,-94.2721
644acdf0a6ac80d10e860533,Shoreline,Washington,47.7564,-122.3426
644acdf0a6ac80d10e860544,Midwest City,Oklahoma,35.463,-97.371
644acdf0a6ac80d10e860536,Bowie,Maryland,38.9549,-76.7406
644acdf0a6ac80d10e86053d,Apex,North Carolina,35.7237,-78.8743
644acdf0a6ac80d10e86052a,Oak Lawn,Illinois,41.7139,-87.7528
644acdf0a6ac80d10e860537,Carson City,Nevada,39.1511,-119.7476
644acdf0a6ac80d10e86052b,Fountainebleau,Florida,25.7723,-80.346
644acdf0a6ac80d10e860531,Queen Creek,Arizona,33.2454,-111.6173
644acdf0a6ac80d10e86052c,Leander,Texas,30.5728,-97.8618
644acdf0a6ac80d10e860542,Bartlett,Tennessee,35.2337,-89.8195
644acdf0a6ac80d10e86052b,St. Cloud,Florida,28.2363,-81.2779
644acdf0a6ac80d10e86052b,Coconut Creek,Florida,26.2803,-80.1842
644acdf0a6ac80d10e86053b,Kettering,Ohio,39.6956,-84.1494
644acdf0a6ac80d10e860535,Parker,Colorado,39.5084,-104.7753
644acdf0a6ac80d10e860538,St. Peters,Missouri,38.7825,-90.6061
644acdf0a6ac80d10e860529,Fountain Valley,California,33.7105,-117.9514
644acdf0a6ac80d10e860531,Maricopa,Arizona,33.0408,-112.0011
644acdf0a6ac80d10e86052a,Berwyn,Illinois,41.8433,-87.7909
644acdf0a6ac80d10e860529,National City,California,32.6654,-117.0983
644acdf0a6ac80d10e86054d,Lenexa,Kansas,38.9609,-94.8018
644acdf0a6ac80d10e860529,Highland,California,34.1113,-117.165
644acdf0a6ac80d10e860529,Arcadia,California,34.1342,-118.0373
644acdf0a6ac80d10e86052a,Mount Prospect,Illinois,42.0641,-87.9375
644acdf0a6ac80d10e860531,Lake Havasu City,Arizona,34.5006,-114.3113
644acdf0a6ac80d10e86052a,Tinley Park,Illinois,41.567,-87.8049
644acdf0a6ac80d10e86052c,DeSoto,Texas,32.5992,-96.8633
644acdf0a6ac80d10e860551,New Brunswick,New Jersey,40.487,-74.445
644acdf0a6ac80d10e860530,Chicopee,Massachusetts,42.1764,-72.5719
644acdf0a6ac80d10e86054a,Madison,Alabama,34.7114,-86.7626
644acdf0a6ac80d10e860545,West Haven,Connecticut,41.2739,-72.9672
644acdf0a6ac80d10e86052e,Smyrna,Georgia,33.8633,-84.5168
644acdf0a6ac80d10e860529,Huntington Park,California,33.98,-118.2167
644acdf0a6ac80d10e86052c,Wylie,Texas,33.0362,-96.5161
644acdf0a6ac80d10e860529,Diamond Bar,California,33.9992,-117.8161
644acdf0a6ac80d10e860534,Apple Valley,Minnesota,44.7457,-93.2004
644acdf0a6ac80d10e860551,Perth Amboy,New Jersey,40.5202,-74.2724
644acdf0a6ac80d10e86052b,Bradenton,Florida,27.4901,-82.5757
644acdf0a6ac80d10e86052e,Brookhaven,Georgia,33.8743,-84.3314
644acdf0a6ac80d10e860529,Hacienda Heights,California,33.997,-117.9727
644acdf0a6ac80d10e86054d,Manhattan,Kansas,39.1886,-96.6048
644acdf0a6ac80d10e860539,Tigard,Oregon,45.4237,-122.7845
644acdf0a6ac80d10e86052b,Tamiami,Florida,25.7556,-80.4016
644acdf0a6ac80d10e860529,Yucaipa,California,34.0336,-117.0429
644acdf0a6ac80d10e86052b,Westchester,Florida,25.7471,-80.3523
644acdf0a6ac80d10e860530,Peabody,Massachusetts,42.5335,-70.9725
644acdf0a6ac80d10e860551,Plainfield,New Jersey,40.6154,-74.4157
644acdf0a6ac80d10e860550,Southaven,Mississippi,34.9514,-89.9786
644acdf0a6ac80d10e86052b,Apopka,Florida,28.7015,-81.5316
644acdf0a6ac80d10e86052a,Oak Park,Illinois,41.8872,-87.7899
644acdf0a6ac80d10e86052b,Horizon West,Florida,28.4417,-81.6146
644acdf0a6ac80d10e860536,Severn,Maryland,39.1355,-76.6956
644acdf0a6ac80d10e860529,Paramount,California,33.8977,-118.1651
644acdf0a6ac80d10e860529,Colton,California,34.0538,-117.3255
644acdf0a6ac80d10e860532,Kentwood,Michigan,42.8852,-85.5926
644acdf0a6ac80d10e860536,Aspen Hill,Maryland,39.0927,-77.0826
644acdf0a6ac80d10e860534,Minnetonka,Minnesota,44.9322,-93.4598
644acdf0a6ac80d10e86052a,Wheaton,Illinois,41.8561,-88.1085
644acdf0a6ac80d10e860529,West Sacramento,California,38.5557,-121.5505
644acdf0a6ac80d10e860531,Casa Grande,Arizona,32.9069,-111.7624
644acdf0a6ac80d10e86052a,Normal,Illinois,40.5217,-88.9884
644acdf0a6ac80d10e86052b,Kendale Lakes,Florida,25.7081,-80.4078
644acdf0a6ac80d10e860529,San Jacinto,California,33.797,-116.9916
644acdf0a6ac80d10e860529,Novato,California,38.092,-122.5575
644acdf0a6ac80d10e86052b,Pinellas Park,Florida,27.8589,-82.7078
644acdf0a6ac80d10e86052c,Galveston,Texas,29.2484,-94.8913
644acdf0a6ac80d10e860534,Edina,Minnesota,44.8914,-93.3602
644acdf0a6ac80d10e860541,Herriman,Utah,40.4899,-112.017
644acdf0a6ac80d10e86053b,Elyria,Ohio,41.376,-82.106
644acdf0a6ac80d10e860548,Grand Island,Nebraska,40.9218,-98.3586
644acdf0a6ac80d10e860539,Aloha,Oregon,45.492,-122.8725
644acdf0a6ac80d10e860533,Lacey,Washington,47.0462,-122.7933
644acdf0a6ac80d10e86054e,Bentonville,Arkansas,36.3547,-94.2305
644acdf0a6ac80d10e860528,Levittown,New York,40.7241,-73.5125
644acdf0a6ac80d10e860530,Methuen Town,Massachusetts,42.734,-71.1889
644acdf0a6ac80d10e860551,West New York,New Jersey,40.7857,-74.0094
644acdf0a6ac80d10e860529,Glendora,California,34.1449,-117.8467
644acdf0a6ac80d10e860542,Smyrna,Tennessee,35.9687,-86.5264
644acdf0a6ac80d10e860538,Florissant,Missouri,38.7996,-90.3269
644acdf0a6ac80d10e860529,Delano,California,35.7662,-119.2635
644acdf0a6ac80d10e86053d,Kannapolis,North Carolina,35.4764,-80.6408
644acdf0a6ac80d10e86052a,Hoffman Estates,Illinois,42.064,-88.1468
644acdf0a6ac80d10e860529,Beaumont,California,33.9076,-116.9766
644acdf0a6ac80d10e860529,Placentia,California,33.8807,-117.8553
644acdf0a6ac80d10e860529,Aliso Viejo,California,33.5792,-117.7289
644acdf0a6ac80d10e860536,Wheaton,Maryland,39.0492,-77.0573
644acdf0a6ac80d10e860529,Cathedral City,California,33.8362,-116.4642
644acdf0a6ac80d10e860529,Rosemead,California,34.0689,-118.0823
644acdf0a6ac80d10e860533,Burien,Washington,47.4762,-122.3394
644acdf0a6ac80d10e860559,Bozeman,Montana,45.6833,-111.0558
644acdf0a6ac80d10e860529,Florin,California,38.4832,-121.4043
644acdf0a6ac80d10e86054f,Twin Falls,Idaho,42.5645,-114.4613
644acdf0a6ac80d10e860544,Enid,Oklahoma,36.4063,-97.87
644acdf0a6ac80d10e86052b,Country Club,Florida,25.9407,-80.3102
644acdf0a6ac80d10e86052e,Dunwoody,Georgia,33.9418,-84.3122
644acdf0a6ac80d10e86052d,Levittown,Pennsylvania,40.1533,-74.8531
644acdf0a6ac80d10e860529,Palm Desert,California,33.7378,-116.3695
644acdf0a6ac80d10e860529,Covina,California,34.0903,-117.8818
644acdf0a6ac80d10e86053b,Cuyahoga Falls,Ohio,41.1641,-81.5207
644acdf0a6ac80d10e86053b,Lakewood,Ohio,41.4822,-81.8008
644acdf0a6ac80d10e860531,Marana,Arizona,32.4355,-111.1558
644acdf0a6ac80d10e86053c,Mishawaka,Indiana,41.6742,-86.1666
644acdf0a6ac80d10e86053c,Columbus,Indiana,39.2093,-85.9183
644acdf0a6ac80d10e860528,Troy,New York,42.7354,-73.6751
644acdf0a6ac80d10e860536,North Bethesda,Maryland,39.0393,-77.1191
644acdf0a6ac80d10e860545,Milford city ,Connecticut,41.2255,-73.0625
644acdf0a6ac80d10e860542,Collierville,Tennessee,35.047,-89.6987
644acdf0a6ac80d10e86052c,Grapevine,Texas,32.9343,-97.0742
644acdf0a6ac80d10e86054b,Summerville,South Carolina,33.0016,-80.1799
644acdf0a6ac80d10e860529,Cypress,California,33.8171,-118.0386
644acdf0a6ac80d10e86052a,Downers Grove,Illinois,41.7949,-88.0172
644acdf0a6ac80d10e860541,Murray,Utah,40.6498,-111.8874
644acdf0a6ac80d10e860531,Catalina Foothills,Arizona,32.3046,-110.8838
644acdf0a6ac80d10e860547,East Honolulu,Hawaii,21.2975,-157.7211
644acdf0a6ac80d10e860541,Draper,Utah,40.4957,-111.8605
644acdf0a6ac80d10e860538,Chesterfield,Missouri,38.6589,-90.5803
644acdf0a6ac80d10e860529,Cerritos,California,33.8678,-118.0686
644acdf0a6ac80d10e86052c,Bedford,Texas,32.8464,-97.135
644acdf0a6ac80d10e860534,St. Louis Park,Minnesota,44.9488,-93.3649
644acdf0a6ac80d10e860529,Azusa,California,34.1386,-117.9124
644acdf0a6ac80d10e86053b,Euclid,Ohio,41.5903,-81.5188
644acdf0a6ac80d10e86053e,McLean,Virginia,38.9436,-77.1943
644acdf0a6ac80d10e86052b,Coral Gables,Florida,25.7037,-80.2715
644acdf0a6ac80d10e860529,Lincoln,California,38.8774,-121.2937
644acdf0a6ac80d10e86053c,Jeffersonville,Indiana,38.3376,-85.7026
644acdf0a6ac80d10e860529,Ceres,California,37.5952,-120.962
644acdf0a6ac80d10e860550,Biloxi,Mississippi,30.4426,-88.9514
644acdf0a6ac80d10e86053c,Lawrence,Indiana,39.8674,-85.9904
644acdf0a6ac80d10e860529,Poway,California,32.9871,-117.0201
644acdf0a6ac80d10e86052c,Cedar Hill,Texas,32.581,-96.9591
644acdf0a6ac80d10e860532,Portage,Michigan,42.2,-85.5906
644acdf0a6ac80d10e860529,Rowland Heights,California,33.9716,-117.8912
644acdf0a6ac80d10e860528,Niagara Falls,New York,43.0921,-79.0147
644acdf0a6ac80d10e86053b,Dublin,Ohio,40.1112,-83.1454
644acdf0a6ac80d10e860529,El Dorado Hills,California,38.675,-121.049
644acdf0a6ac80d10e86053d,Mooresville,North Carolina,35.5847,-80.8266
644acdf0a6ac80d10e860529,North Highlands,California,38.6713,-121.3721
644acdf0a6ac80d10e860529,Antelope,California,38.7153,-121.361
644acdf0a6ac80d10e860542,Spring Hill,Tennessee,35.7437,-86.9116
644acdf0a6ac80d10e860530,Everett,Massachusetts,42.4064,-71.0545
644acdf0a6ac80d10e86052b,University,Florida,28.0771,-82.4335
644acdf0a6ac80d10e860549,Roswell,New Mexico,33.373,-104.5294
644acdf0a6ac80d10e86053e,Leesburg,Virginia,39.1057,-77.5544
644acdf0a6ac80d10e860529,Rancho Santa Margarita,California,33.6318,-117.5988
644acdf0a6ac80d10e86053e,Tuckahoe,Virginia,37.5878,-77.5858
644acdf0a6ac80d10e86052b,Titusville,Florida,28.5727,-80.8193
644acdf0a6ac80d10e86052a,Glenview,Illinois,42.0825,-87.8214
644acdf0a6ac80d10e86053f,Wauwatosa,Wisconsin,43.0616,-88.0347
644acdf0a6ac80d10e860544,Stillwater,Oklahoma,36.1317,-97.0742
644acdf0a6ac80d10e860555,Minot,North Dakota,48.2375,-101.278
644acdf0a6ac80d10e860529,La Mirada,California,33.9025,-118.0093
644acdf0a6ac80d10e86053d,Wilson,North Carolina,35.7311,-77.9284
644acdf0a6ac80d10e860529,Newark,California,37.5201,-122.0307
644acdf0a6ac80d10e860532,Roseville,Michigan,42.5074,-82.9369
644acdf0a6ac80d10e860532,East Lansing,Michigan,42.748,-84.4836
644acdf0a6ac80d10e86053b,Mentor,Ohio,41.6893,-81.3362
644acdf0a6ac80d10e860533,Bothell,Washington,47.7735,-122.2044
644acdf0a6ac80d10e860529,San Luis Obispo,California,35.2669,-120.669
644acdf0a6ac80d10e86052c,Burleson,Texas,32.517,-97.3344
644acdf0a6ac80d10e860540,East Providence,Rhode Island,41.8065,-71.3565
644acdf0a6ac80d10e860545,Middletown,Connecticut,41.5476,-72.6549
644acdf0a6ac80d10e860529,Brea,California,33.9254,-117.8655
644acdf0a6ac80d10e86054d,Salina,Kansas,38.8136,-97.6143
644acdf0a6ac80d10e860536,Potomac,Maryland,39.0141,-77.1943
644acdf0a6ac80d10e860549,Farmington,New Mexico,36.7555,-108.1823
644acdf0a6ac80d10e860551,Sicklerville,New Jersey,39.7452,-74.9934
644acdf0a6ac80d10e86052b,Ocoee,Florida,28.5796,-81.5332
644acdf0a6ac80d10e860547,Hilo,Hawaii,19.6883,-155.0863
644acdf0a6ac80d10e860531,Oro Valley,Arizona,32.4208,-110.9767
644acdf0a6ac80d10e86052b,Fort Pierce,Florida,27.4255,-80.3431
644acdf0a6ac80d10e86053d,Wake Forest,North Carolina,35.9632,-78.514
644acdf0a6ac80d10e86053b,Beavercreek,Ohio,39.731,-84.0624
644acdf0a6ac80d10e86053b,Strongsville,Ohio,41.3128,-81.8313
644acdf0a6ac80d10e86052c,Rockwall,Texas,32.9169,-96.4374
644acdf0a6ac80d10e860530,Attleboro,Massachusetts,41.9311,-71.295
644acdf0a6ac80d10e86052b,Winter Garden,Florida,28.5421,-81.5967
644acdf0a6ac80d10e860547,Pearl City,Hawaii,21.4031,-157.9566
644acdf0a6ac80d10e86052c,Haltom City,Texas,32.8176,-97.2707
644acdf0a6ac80d10e86052b,Altamonte Springs,Florida,28.6615,-81.3953
644acdf0a6ac80d10e860551,Hackensack,New Jersey,40.8891,-74.0462
644acdf0a6ac80d10e86053c,Westfield,Indiana,40.0341,-86.1529
644acdf0a6ac80d10e86052a,Elmhurst,Illinois,41.8973,-87.9432
644acdf0a6ac80d10e860541,Bountiful,Utah,40.8721,-111.8647
644acdf0a6ac80d10e860535,Littleton,Colorado,39.5915,-105.0188
644acdf0a6ac80d10e86052c,Huntsville,Texas,30.7009,-95.5567
644acdf0a6ac80d10e86053b,Cleveland Heights,Ohio,41.5113,-81.5636
644acdf0a6ac80d10e860529,Morgan Hill,California,37.1325,-121.6419
644acdf0a6ac80d10e86052c,Keller,Texas,32.9335,-97.2256
644acdf0a6ac80d10e86052c,Kyle,Texas,29.9932,-97.8852
644acdf0a6ac80d10e86052c,Little Elm,Texas,33.1858,-96.9295
644acdf0a6ac80d10e860537,Whitney,Nevada,36.1008,-115.0379
644acdf0a6ac80d10e860531,Prescott,Arizona,34.5849,-112.4473
644acdf0a6ac80d10e860551,Sayreville,New Jersey,40.4656,-74.3237
644acdf0a6ac80d10e86054c,Urbandale,Iowa,41.639,-93.7812
644acdf0a6ac80d10e86053e,Ashburn,Virginia,39.0277,-77.4714
644acdf0a6ac80d10e860531,Sierra Vista,Arizona,31.563,-110.3153
644acdf0a6ac80d10e86052b,Cutler Bay,Florida,25.5765,-80.3356
644acdf0a6ac80d10e860529,Palm Springs,California,33.8017,-116.5382
644acdf0a6ac80d10e860541,Riverton,Utah,40.5176,-111.9636
644acdf0a6ac80d10e86053e,Lake Ridge,Virginia,38.6847,-77.3066
644acdf0a6ac80d10e86052b,North Lauderdale,Florida,26.2113,-80.2209
644acdf0a6ac80d10e86053b,Fairfield,Ohio,39.3301,-84.5409
644acdf0a6ac80d10e86053c,West Lafayette,Indiana,40.4432,-86.9238
644acdf0a6ac80d10e86054b,Goose Creek,South Carolina,32.9927,-80.0055
644acdf0a6ac80d10e860530,Salem,Massachusetts,42.5129,-70.9021
644acdf0a6ac80d10e860529,Los Banos,California,37.063,-120.8406
644acdf0a6ac80d10e860529,Rohnert Park,California,38.3479,-122.6965
644acdf0a6ac80d10e86053f,Fond du Lac,Wisconsin,43.7718,-88.4397
644acdf0a6ac80d10e860542,Brentwood,Tennessee,35.9918,-86.7758
644acdf0a6ac80d10e860528,Freeport,New York,40.6515,-73.585
644acdf0a6ac80d10e86052a,Lombard,Illinois,41.8741,-88.0157
644acdf0a6ac80d10e86052a,Plainfield,Illinois,41.6207,-88.2253
644acdf0a6ac80d10e860529,Lompoc,California,34.6618,-120.4714
644acdf0a6ac80d10e86053a,Trujillo Alto,Puerto Rico,18.3599,-66.0096
644acdf0a6ac80d10e86053e,Burke,Virginia,38.7773,-77.2633
644acdf0a6ac80d10e860534,Moorhead,Minnesota,46.8673,-96.7461
644acdf0a6ac80d10e86052b,Oakland Park,Florida,26.178,-80.1528
644acdf0a6ac80d10e86052d,Wilkes-Barre,Pennsylvania,41.2469,-75.876
644acdf0a6ac80d10e860529,Campbell,California,37.2802,-121.9539
644acdf0a6ac80d10e860534,Mankato,Minnesota,44.1715,-93.9772
644acdf0a6ac80d10e860530,Pittsfield,Massachusetts,42.4517,-73.2605
644acdf0a6ac80d10e860529,San Bruno,California,37.6256,-122.4313
644acdf0a6ac80d10e860529,Danville,California,37.8121,-121.9698
644acdf0a6ac80d10e860553,Concord,New Hampshire,43.2305,-71.5595
644acdf0a6ac80d10e86052c,The Colony,Texas,33.0925,-96.8976
644acdf0a6ac80d10e860536,Odenton,Maryland,39.0661,-76.6938
644acdf0a6ac80d10e86052b,Greenacres,Florida,26.627,-80.1371
644acdf0a6ac80d10e860528,West Babylon,New York,40.7129,-73.3585
644acdf0a6ac80d10e860534,Shakopee,Minnesota,44.7745,-93.4772
644acdf0a6ac80d10e860551,Linden,New Jersey,40.6251,-74.2383
644acdf0a6ac80d10e860529,Altadena,California,34.1927,-118.1346
644acdf0a6ac80d10e86052b,North Miami Beach,Florida,25.9302,-80.1659
644acdf0a6ac80d10e860542,Gallatin,Tennessee,36.3782,-86.4698
644acdf0a6ac80d10e860538,Wentzville,Missouri,38.8153,-90.8669
644acdf0a6ac80d10e860528,Hicksville,New York,40.7637,-73.5245
644acdf0a6ac80d10e860538,Jefferson City,Missouri,38.5676,-92.1759
644acdf0a6ac80d10e86052a,Buffalo Grove,Illinois,42.1675,-87.9615
644acdf0a6ac80d10e860540,Woonsocket,Rhode Island,42.001,-71.4993
644acdf0a6ac80d10e860529,Oakley,California,37.9929,-121.6952
644acdf0a6ac80d10e860541,Eagle Mountain,Utah,40.3137,-112.0114
644acdf0a6ac80d10e860536,Catonsville,Maryland,39.2646,-76.7424
644acdf0a6ac80d10e86053e,Woodbridge,Virginia,38.6409,-77.258
644acdf0a6ac80d10e86052b,Ormond Beach,Florida,29.2985,-81.1014
644acdf0a6ac80d10e86052a,Moline,Illinois,41.4821,-90.492
644acdf0a6ac80d10e86053b,Huber Heights,Ohio,39.8595,-84.113
644acdf0a6ac80d10e860533,Edmonds,Washington,47.8115,-122.3533
644acdf0a6ac80d10e86053e,Manassas,Virginia,38.7479,-77.4838
644acdf0a6ac80d10e86053e,Danville,Virginia,36.5831,-79.4088
644acdf0a6ac80d10e860537,Pahrump,Nevada,36.2235,-115.9974
644acdf0a6ac80d10e86052a,Belleville,Illinois,38.5164,-89.99
644acdf0a6ac80d10e860530,Beverly,Massachusetts,42.5681,-70.8627
644acdf0a6ac80d10e860532,Midland,Michigan,43.6241,-84.2319
644acdf0a6ac80d10e86052c,Coppell,Texas,32.9639,-96.9903
644acdf0a6ac80d10e86052c,Channelview,Texas,29.7914,-95.1144
644acdf0a6ac80d10e860533,Puyallup,Washington,47.1793,-122.2902
644acdf0a6ac80d10e860529,Rancho Palos Verdes,California,33.7554,-118.3634
644acdf0a6ac80d10e860529,Coachella,California,33.6905,-116.143
644acdf0a6ac80d10e86053e,Linton Hall,Virginia,38.7551,-77.575
644acdf0a6ac80d10e86052e,Peachtree Corners,Georgia,33.967,-84.232
644acdf0a6ac80d10e860536,Woodlawn,Maryland,39.3054,-76.7489
644acdf0a6ac80d10e86054e,Pine Bluff,Arkansas,34.2116,-92.0173
644acdf0a6ac80d10e860541,Spanish Fork,Utah,40.1101,-111.6405
644acdf0a6ac80d10e86053e,Annandale,Virginia,38.8324,-77.196
644acdf0a6ac80d10e860530,Fitchburg,Massachusetts,42.5912,-71.8156
644acdf0a6ac80d10e860551,Kearny,New Jersey,40.7528,-74.1202
644acdf0a6ac80d10e860534,Maplewood,Minnesota,44.9842,-93.0247
644acdf0a6ac80d10e86052e,Mableton,Georgia,33.8133,-84.5655
644acdf0a6ac80d10e86052c,Schertz,Texas,29.565,-98.2535
644acdf0a6ac80d10e86052e,Newnan,Georgia,33.3767,-84.7761
644acdf0a6ac80d10e86052b,Clermont,Florida,28.5325,-81.7208
644acdf0a6ac80d10e86052b,North Fort Myers,Florida,26.7244,-81.8485
644acdf0a6ac80d10e860530,Marlborough,Massachusetts,42.3494,-71.5468
644acdf0a6ac80d10e860529,Vineyard,California,38.474,-121.324
644acdf0a6ac80d10e860528,Coram,New York,40.8812,-73.0059
644acdf0a6ac80d10e86052a,Bartlett,Illinois,41.9804,-88.2071
644acdf0a6ac80d10e860529,Hollister,California,36.8555,-121.3986
644acdf0a6ac80d10e860531,Bullhead City,Arizona,35.1205,-114.5461
644acdf0a6ac80d10e86052c,Lancaster,Texas,32.5922,-96.7739
644acdf0a6ac80d10e86053b,Grove City,Ohio,39.8654,-83.069
644acdf0a6ac80d10e86054c,Marion,Iowa,42.0451,-91.585
644acdf0a6ac80d10e86053f,Brookfield,Wisconsin,43.064,-88.1231
644acdf0a6ac80d10e86053b,Delaware,Ohio,40.2851,-83.0741
644acdf0a6ac80d10e86052b,Hallandale Beach,Florida,25.9854,-80.1423
644acdf0a6ac80d10e860530,Woburn,Massachusetts,42.4869,-71.1543
644acdf0a6ac80d10e860542,Columbia,Tennessee,35.6238,-87.0484
644acdf0a6ac80d10e860542,Germantown,Tennessee,35.0829,-89.7824
644acdf0a6ac80d10e860545,Shelton,Connecticut,41.306,-73.1383
644acdf0a6ac80d10e860543,Covington,Kentucky,39.0334,-84.5166
644acdf0a6ac80d10e860530,Westfield,Massachusetts,42.1382,-72.7561
644acdf0a6ac80d10e86052c,Friendswood,Texas,29.511,-95.1981
644acdf0a6ac80d10e86052b,The Acreage,Florida,26.774,-80.2779
644acdf0a6ac80d10e860536,Essex,Maryland,39.3021,-76.4449
644acdf0a6ac80d10e860529,Culver City,California,34.0058,-118.3968
644acdf0a6ac80d10e860536,Annapolis,Maryland,38.9706,-76.5047
644acdf0a6ac80d10e86052c,Duncanville,Texas,32.646,-96.9127
644acdf0a6ac80d10e86054c,Cedar Falls,Iowa,42.5195,-92.4536
644acdf0a6ac80d10e86052e,Milton,Georgia,34.1353,-84.3139
644acdf0a6ac80d10e86052c,Weslaco,Texas,26.1599,-97.9877
644acdf0a6ac80d10e860539,Lake Oswego,Oregon,45.4129,-122.7004
644acdf0a6ac80d10e86053b,Lancaster,Ohio,39.7248,-82.6049
644acdf0a6ac80d10e86053b,Findlay,Ohio,41.0469,-83.6379
644acdf0a6ac80d10e860528,Valley Stream,New York,40.6647,-73.7043
644acdf0a6ac80d10e86053f,New Berlin,Wisconsin,42.9726,-88.1291
644acdf0a6ac80d10e86054d,Hutchinson,Kansas,38.0671,-97.9081
644acdf0a6ac80d10e86053d,Holly Springs,North Carolina,35.6526,-78.8399
644acdf0a6ac80d10e860529,French Valley,California,33.5999,-117.1069
644acdf0a6ac80d10e860535,Security-Widefield,Colorado,38.7489,-104.7142
644acdf0a6ac80d10e86052c,Hurst,Texas,32.8353,-97.1809
644acdf0a6ac80d10e86052a,Romeoville,Illinois,41.6318,-88.0997
644acdf0a6ac80d10e86052a,Crystal Lake,Illinois,42.2333,-88.3351
644acdf0a6ac80d10e860530,Chelsea,Massachusetts,42.3959,-71.0325
644acdf0a6ac80d10e860547,Waipahu,Hawaii,21.3859,-158.0101
644acdf0a6ac80d10e860536,Clinton,Maryland,38.7499,-76.9063
644acdf0a6ac80d10e86052b,Meadow Woods,Florida,28.3698,-81.3467
644acdf0a6ac80d10e86052a,Carol Stream,Illinois,41.9181,-88.1307
644acdf0a6ac80d10e860535,Brighton,Colorado,39.9716,-104.7963
644acdf0a6ac80d10e860529,Bell Gardens,California,33.9663,-118.155
644acdf0a6ac80d10e86052c,Waxahachie,Texas,32.4035,-96.8446
644acdf0a6ac80d10e86053b,Reynoldsburg,Ohio,39.9588,-82.7943
644acdf0a6ac80d10e860532,Lincoln Park,Michigan,42.2432,-83.1811
644acdf0a6ac80d10e86052a,Streamwood,Illinois,42.0209,-88.1779
644acdf0a6ac80d10e86052b,Aventura,Florida,25.9566,-80.1371
644acdf0a6ac80d10e860551,Fort Lee,New Jersey,40.8509,-73.9713
644acdf0a6ac80d10e86052a,Quincy,Illinois,39.9336,-91.3799
644acdf0a6ac80d10e860529,San Gabriel,California,34.0949,-118.099
644acdf0a6ac80d10e86052b,Valrico,Florida,27.9193,-82.2293
644acdf0a6ac80d10e86053d,Indian Trail,North Carolina,35.0699,-80.6452
644acdf0a6ac80d10e86052a,Park Ridge,Illinois,42.0125,-87.8436
644acdf0a6ac80d10e860549,Hobbs,New Mexico,32.7281,-103.16
644acdf0a6ac80d10e860538,Cape Girardeau,Missouri,37.3109,-89.5597
644acdf0a6ac80d10e86052b,Oviedo,Florida,28.658,-81.1872
644acdf0a6ac80d10e86053b,Warren,Ohio,41.239,-80.8174
644acdf0a6ac80d10e86052b,Plant City,Florida,28.014,-82.1201
644acdf0a6ac80d10e86052a,Urbana,Illinois,40.1107,-88.1973
644acdf0a6ac80d10e860550,Olive Branch,Mississippi,34.961,-89.8469
644acdf0a6ac80d10e860539,Keizer,Oregon,45.0028,-123.0243
644acdf0a6ac80d10e860536,Severna Park,Maryland,39.087,-76.5687
644acdf0a6ac80d10e86052a,Wheeling,Illinois,42.1308,-87.924
644acdf0a6ac80d10e860541,Roy,Utah,41.1714,-112.0485
644acdf0a6ac80d10e860533,Issaquah,Washington,47.5439,-122.0471
644acdf0a6ac80d10e86053b,Westerville,Ohio,40.1241,-82.921
644acdf0a6ac80d10e860539,Grants Pass,Oregon,42.4333,-123.3317
644acdf0a6ac80d10e860533,Lynnwood,Washington,47.8284,-122.3033
644acdf0a6ac80d10e860529,Calexico,California,32.6849,-115.4944
644acdf0a6ac80d10e86052c,Mission Bend,Texas,29.6948,-95.6658
644acdf0a6ac80d10e86052b,Royal Palm Beach,Florida,26.7038,-80.2241
644acdf0a6ac80d10e86052b,Land O' Lakes,Florida,28.2075,-82.4476
644acdf0a6ac80d10e86054c,Bettendorf,Iowa,41.5657,-90.4765
644acdf0a6ac80d10e860529,Pacifica,California,37.6113,-122.4782
644acdf0a6ac80d10e860534,Cottage Grove,Minnesota,44.8161,-92.9274
644acdf0a6ac80d10e860549,Clovis,New Mexico,34.4376,-103.1923
644acdf0a6ac80d10e86054a,Vestavia Hills,Alabama,33.4518,-86.7437
644acdf0a6ac80d10e860529,La Presa,California,32.711,-117.0027
644acdf0a6ac80d10e860530,Holyoke,Massachusetts,42.2125,-72.6411
644acdf0a6ac80d10e86052e,Evans,Georgia,33.5619,-82.1351
644acdf0a6ac80d10e860529,La Puente,California,34.0323,-117.9533
644acdf0a6ac80d10e860531,Apache Junction,Arizona,33.3985,-111.535
644acdf0a6ac80d10e86053f,Menomonee Falls,Wisconsin,43.1487,-88.1227
644acdf0a6ac80d10e86054a,Phenix City,Alabama,32.4585,-85.0253
644acdf0a6ac80d10e860529,Stanton,California,33.8003,-117.9935
644acdf0a6ac80d10e86054f,Post Falls,Idaho,47.7213,-116.9384
644acdf0a6ac80d10e860542,La Vergne,Tennessee,36.02,-86.5586
644acdf0a6ac80d10e860533,Parkland,Washington,47.1417,-122.4376
644acdf0a6ac80d10e860528,East Meadow,New York,40.7197,-73.5604
644acdf0a6ac80d10e860542,Mount Juliet,Tennessee,36.199,-86.5115
644acdf0a6ac80d10e86054e,Hot Springs,Arkansas,34.4892,-93.0501
644acdf0a6ac80d10e86052b,Winter Springs,Florida,28.6889,-81.2703
644acdf0a6ac80d10e860529,Monrovia,California,34.165,-117.9921
644acdf0a6ac80d10e86054a,Prattville,Alabama,32.4597,-86.4573
644acdf0a6ac80d10e86052a,Carpentersville,Illinois,42.1227,-88.2896
644acdf0a6ac80d10e860555,West Fargo,North Dakota,46.8573,-96.9057
644acdf0a6ac80d10e860535,Northglenn,Colorado,39.9108,-104.9783
644acdf0a6ac80d10e86052e,East Point,Georgia,33.6696,-84.4701
644acdf0a6ac80d10e860550,Tupelo,Mississippi,34.2692,-88.7318
644acdf0a6ac80d10e86052c,Rosenberg,Texas,29.5456,-95.8223
644acdf0a6ac80d10e860529,Montclair,California,34.0715,-117.6981
644acdf0a6ac80d10e86052e,Peachtree City,Georgia,33.3942,-84.571
644acdf0a6ac80d10e860529,La Quinta,California,33.6536,-116.2785
644acdf0a6ac80d10e86053e,Mechanicsville,Virginia,37.6263,-77.3561
644acdf0a6ac80d10e860531,Sun City,Arizona,33.6165,-112.2819
644acdf0a6ac80d10e86052b,Richmond West,Florida,25.6105,-80.4297
644acdf0a6ac80d10e86053f,Greenfield,Wisconsin,42.9619,-88.0052
644acdf0a6ac80d10e860544,Owasso,Oklahoma,36.2878,-95.8311
644acdf0a6ac80d10e86052a,Hanover Park,Illinois,41.9818,-88.1446
644acdf0a6ac80d10e86053c,Portage,Indiana,41.5856,-87.1797
644acdf0a6ac80d10e86052a,Rock Island,Illinois,41.4699,-90.5827
644acdf0a6ac80d10e860542,Lebanon,Tennessee,36.204,-86.3481
644acdf0a6ac80d10e860529,Foothill Farms,California,38.6867,-121.3475
644acdf0a6ac80d10e86053c,New Albany,Indiana,38.309,-85.8234
644acdf0a6ac80d10e860529,Martinez,California,37.9985,-122.1161
644acdf0a6ac80d10e86052b,Riviera Beach,Florida,26.7813,-80.0741
644acdf0a6ac80d10e860529,Adelanto,California,34.5814,-117.4397
644acdf0a6ac80d10e860541,Pleasant Grove,Utah,40.3716,-111.7412
644acdf0a6ac80d10e86054d,Leavenworth,Kansas,39.3239,-94.924
644acdf0a6ac80d10e860544,Muskogee,Oklahoma,35.7432,-95.3567
644acdf0a6ac80d10e860539,Oregon City,Oregon,45.3418,-122.5924
644acdf0a6ac80d10e860544,Bartlesville,Oklahoma,36.7365,-95.9456
644acdf0a6ac80d10e860541,Saratoga Springs,Utah,40.345,-111.9154
644acdf0a6ac80d10e86052b,Kendall West,Florida,25.7065,-80.4388
644acdf0a6ac80d10e860534,Richfield,Minnesota,44.8763,-93.2829
644acdf0a6ac80d10e860541,Kearns,Utah,40.6519,-112.0095
644acdf0a6ac80d10e86052e,Tucker,Georgia,33.8436,-84.2024
644acdf0a6ac80d10e860528,Elmont,New York,40.7033,-73.7078
644acdf0a6ac80d10e86053f,Franklin,Wisconsin,42.8854,-88.0104
644acdf0a6ac80d10e86053e,Oakton,Virginia,38.8887,-77.3016
644acdf0a6ac80d10e860554,Lewiston,Maine,44.0915,-70.1681
644acdf0a6ac80d10e860549,South Valley,New Mexico,35.0093,-106.6819
644acdf0a6ac80d10e86053f,Beloit,Wisconsin,42.523,-89.0184
644acdf0a6ac80d10e86053b,Upper Arlington,Ohio,40.0272,-83.0704
644acdf0a6ac80d10e86052b,DeLand,Florida,29.0225,-81.2875
644acdf0a6ac80d10e860529,Temple City,California,34.1022,-118.0579
644acdf0a6ac80d10e860529,Wildomar,California,33.6173,-117.2582
644acdf0a6ac80d10e860536,Chillum,Maryland,38.9666,-76.9791
644acdf0a6ac80d10e86052b,Princeton,Florida,25.5396,-80.3971
644acdf0a6ac80d10e860529,Claremont,California,34.1259,-117.7153
644acdf0a6ac80d10e860537,Winchester,Nevada,36.1365,-115.137
644acdf0a6ac80d10e860528,Central Islip,New York,40.7836,-73.1945
644acdf0a6ac80d10e860543,Georgetown,Kentucky,38.2247,-84.5487
644acdf0a6ac80d10e86053f,Oak Creek,Wisconsin,42.8803,-87.9009
644acdf0a6ac80d10e860528,Commack,New York,40.8435,-73.2833
644acdf0a6ac80d10e86052b,South Miami Heights,Florida,25.5886,-80.3862
644acdf0a6ac80d10e860529,Moorpark,California,34.2861,-118.8768
644acdf0a6ac80d10e86053c,Merrillville,Indiana,41.4728,-87.3196
644acdf0a6ac80d10e86052b,Estero,Florida,26.4276,-81.7951
644acdf0a6ac80d10e86052b,Egypt Lake-Leto,Florida,28.0177,-82.5062
644acdf0a6ac80d10e860534,Roseville,Minnesota,45.0155,-93.1545
644acdf0a6ac80d10e86052b,Dunedin,Florida,28.0329,-82.7862
644acdf0a6ac80d10e86052c,Farmers Branch,Texas,32.9272,-96.8804
644acdf0a6ac80d10e86052a,Calumet City,Illinois,41.6134,-87.5505
644acdf0a6ac80d10e86053b,Marion,Ohio,40.5973,-83.1227
644acdf0a6ac80d10e86052a,Addison,Illinois,41.9313,-88.0085
644acdf0a6ac80d10e86052b,Buenaventura Lakes,Florida,28.3349,-81.3539
644acdf0a6ac80d10e860529,Westmont,California,33.9417,-118.3018
644acdf0a6ac80d10e86052b,Lauderdale Lakes,Florida,26.1682,-80.2017
644acdf0a6ac80d10e86053c,Richmond,Indiana,39.8318,-84.8905
644acdf0a6ac80d10e86052b,Carrollwood,Florida,28.0577,-82.5148
644acdf0a6ac80d10e860536,Olney,Maryland,39.1465,-77.0715
644acdf0a6ac80d10e860529,Orangevale,California,38.6881,-121.2209
644acdf0a6ac80d10e860529,West Hollywood,California,34.0883,-118.3719
644acdf0a6ac80d10e860536,Randallstown,Maryland,39.3723,-76.8024
644acdf0a6ac80d10e86053b,Gahanna,Ohio,40.0251,-82.8637
644acdf0a6ac80d10e860550,Meridian,Mississippi,32.3846,-88.6896
644acdf0a6ac80d10e86052d,Norristown,Pennsylvania,40.1225,-75.3398
644acdf0a6ac80d10e860529,Manhattan Beach,California,33.8894,-118.3967
644acdf0a6ac80d10e86052c,La Porte,Texas,29.6689,-95.0484
644acdf0a6ac80d10e860534,Inver Grove Heights,Minnesota,44.8247,-93.0596
644acdf0a6ac80d10e86053b,Hilliard,Ohio,40.0353,-83.1578
644acdf0a6ac80d10e86053f,Sun Prairie,Wisconsin,43.1825,-89.2362
644acdf0a6ac80d10e86052c,Copperas Cove,Texas,31.1192,-97.914
644acdf0a6ac80d10e860545,Torrington,Connecticut,41.8349,-73.1282
644acdf0a6ac80d10e860531,El Mirage,Arizona,33.5905,-112.3271
644acdf0a6ac80d10e860538,Wildwood,Missouri,38.58,-90.6698
644acdf0a6ac80d10e86052c,San Juan,Texas,26.1903,-98.152
644acdf0a6ac80d10e860538,Oakville,Missouri,38.4479,-90.3199
644acdf0a6ac80d10e860529,San Juan Capistrano,California,33.5008,-117.6544
644acdf0a6ac80d10e860541,Midvale,Utah,40.6148,-111.8927
644acdf0a6ac80d10e860531,San Luis,Arizona,32.4911,-114.7089
644acdf0a6ac80d10e86053b,Brunswick,Ohio,41.2465,-81.8198
644acdf0a6ac80d10e86053d,Salisbury,North Carolina,35.6658,-80.4905
644acdf0a6ac80d10e860541,Tooele,Utah,40.5393,-112.3082
644acdf0a6ac80d10e860530,Watertown Town,Massachusetts,42.37,-71.1774
644acdf0a6ac80d10e860536,Owings Mills,Maryland,39.4115,-76.7913
644acdf0a6ac80d10e86054b,Greer,South Carolina,34.933,-82.2313
644acdf0a6ac80d10e860533,Lake Stevens,Washington,48.0024,-122.0953
644acdf0a6ac80d10e86052a,Northbrook,Illinois,42.1292,-87.8352
644acdf0a6ac80d10e860536,College Park,Maryland,38.996,-76.9337
644acdf0a6ac80d10e860538,University City,Missouri,38.6657,-90.3315
644acdf0a6ac80d10e86053b,North Ridgeville,Ohio,41.3852,-82.0195
644acdf0a6ac80d10e86052c,Del Rio,Texas,29.3708,-100.8801
644acdf0a6ac80d10e860551,Fair Lawn,New Jersey,40.9359,-74.1177
644acdf0a6ac80d10e860528,Long Beach,New York,40.5887,-73.666
644acdf0a6ac80d10e86053c,Goshen,Indiana,41.5743,-85.8309
644acdf0a6ac80d10e860529,San Dimas,California,34.1082,-117.809
644acdf0a6ac80d10e860541,Springville,Utah,40.1638,-111.6205
644acdf0a6ac80d10e86054e,Benton,Arkansas,34.5776,-92.5713
644acdf0a6ac80d10e86052e,Hinesville,Georgia,31.8248,-81.6137
644acdf0a6ac80d10e86052c,Socorro,Texas,31.6383,-106.2601
644acdf0a6ac80d10e860533,Spanaway,Washington,47.0979,-122.4233
644acdf0a6ac80d10e860543,Richmond,Kentucky,37.7307,-84.2925
644acdf0a6ac80d10e860529,Pleasant Hill,California,37.9539,-122.0759
644acdf0a6ac80d10e860533,University Place,Washington,47.2147,-122.5461
644acdf0a6ac80d10e86053b,Stow,Ohio,41.1765,-81.4344
644acdf0a6ac80d10e860547,Kaneohe,Hawaii,21.4062,-157.7904
644acdf0a6ac80d10e860536,Montgomery Village,Maryland,39.1788,-77.1954
644acdf0a6ac80d10e86052b,Fruit Cove,Florida,30.0972,-81.6175
644acdf0a6ac80d10e86053d,Monroe,North Carolina,35.0063,-80.5596
644acdf0a6ac80d10e86053e,Fair Oaks,Virginia,38.8653,-77.3586
644acdf0a6ac80d10e86052e,Douglasville,Georgia,33.7384,-84.7054
644acdf0a6ac80d10e86053b,Fairborn,Ohio,39.801,-84.0094
644acdf0a6ac80d10e860559,Butte,Montana,45.902,-112.6571
644acdf0a6ac80d10e860535,Dakota Ridge,Colorado,39.6192,-105.1344
644acdf0a6ac80d10e860529,Oildale,California,35.4293,-119.0306
644acdf0a6ac80d10e86053b,Mason,Ohio,39.3571,-84.3023
644acdf0a6ac80d10e86052a,Oswego,Illinois,41.6834,-88.3372
644acdf0a6ac80d10e86054a,Gadsden,Alabama,34.0086,-86.0157
644acdf0a6ac80d10e86053c,Plainfield,Indiana,39.6954,-86.3716
644acdf0a6ac80d10e86053f,Manitowoc,Wisconsin,44.0991,-87.6812
644acdf0a6ac80d10e86052c,Lufkin,Texas,31.3217,-94.7277
644acdf0a6ac80d10e860541,Cedar City,Utah,37.6834,-113.0956
644acdf0a6ac80d10e86052c,Deer Park,Texas,29.6898,-95.1151
644acdf0a6ac80d10e860539,McMinnville,Oregon,45.211,-123.1918
644acdf0a6ac80d10e86052a,Woodridge,Illinois,41.737,-88.0409
644acdf0a6ac80d10e860532,Eastpointe,Michigan,42.4657,-82.9461
644acdf0a6ac80d10e860546,Prairieville,Louisiana,30.3151,-90.9571
644acdf0a6ac80d10e860528,New City,New York,41.1542,-73.9912
644acdf0a6ac80d10e860542,Cookeville,Tennessee,36.1482,-85.5109
644acdf0a6ac80d10e860528,Huntington Station,New York,40.8446,-73.405
644acdf0a6ac80d10e86053b,Westlake,Ohio,41.4524,-81.9294
644acdf0a6ac80d10e86052b,Merritt Island,Florida,28.3139,-80.6708
644acdf0a6ac80d10e86054f,Lewiston,Idaho,46.3934,-116.9933
644acdf0a6ac80d10e86052b,Golden Glades,Florida,25.9129,-80.2013
644acdf0a6ac80d10e860529,Bell,California,33.9801,-118.1798
644acdf0a6ac80d10e86052c,Midlothian,Texas,32.4669,-96.989
644acdf0a6ac80d10e860535,Ken Caryl,Colorado,39.577,-105.1144
644acdf0a6ac80d10e86052b,Cooper City,Florida,26.0463,-80.2862
644acdf0a6ac80d10e86052e,Woodstock,Georgia,34.1026,-84.5091
644acdf0a6ac80d10e86052e,Martinez,Georgia,33.5209,-82.0985
644acdf0a6ac80d10e86053e,South Riding,Virginia,38.912,-77.5132
644acdf0a6ac80d10e86053c,Valparaiso,Indiana,41.4783,-87.0506
644acdf0a6ac80d10e86052b,Parkland,Florida,26.3219,-80.2533
644acdf0a6ac80d10e860533,Walla Walla,Washington,46.0671,-118.3368
644acdf0a6ac80d10e86054d,Leawood,Kansas,38.9075,-94.6258
644acdf0a6ac80d10e860533,Graham,Washington,47.0322,-122.2827
644acdf0a6ac80d10e86054f,Rexburg,Idaho,43.8226,-111.7919
644acdf0a6ac80d10e860529,Menlo Park,California,37.4685,-122.1673
644acdf0a6ac80d10e860541,Cottonwood Heights,Utah,40.6137,-111.8144
644acdf0a6ac80d10e860548,Kearney,Nebraska,40.7011,-99.0833
644acdf0a6ac80d10e860536,Pikesville,Maryland,39.3893,-76.702
644acdf0a6ac80d10e860531,Sahuarita,Arizona,31.9323,-110.9654
644acdf0a6ac80d10e86053c,Crown Point,Indiana,41.4143,-87.3457
644acdf0a6ac80d10e860529,Foster City,California,37.5553,-122.2659
644acdf0a6ac80d10e86052c,Timberwood Park,Texas,29.6995,-98.4838
644acdf0a6ac80d10e860535,Englewood,Colorado,39.6468,-104.9942
644acdf0a6ac80d10e86052a,Glendale Heights,Illinois,41.9196,-88.0785
644acdf0a6ac80d10e86052d,Bethel Park,Pennsylvania,40.3238,-80.0364
644acdf0a6ac80d10e860528,Baldwin,New York,40.6511,-73.6075
644acdf0a6ac80d10e860529,Dana Point,California,33.4733,-117.6967
644acdf0a6ac80d10e860529,Los Gatos,California,37.2304,-121.9562
644acdf0a6ac80d10e860534,Brooklyn Center,Minnesota,45.0681,-93.3162
644acdf0a6ac80d10e86052b,West Little River,Florida,25.8571,-80.2367
644acdf0a6ac80d10e86053e,Petersburg,Virginia,37.2043,-77.3913
644acdf0a6ac80d10e86053d,Goldsboro,North Carolina,35.3778,-77.9717
644acdf0a6ac80d10e860539,Redmond,Oregon,44.2612,-121.181
644acdf0a6ac80d10e86053d,Fuquay-Varina,North Carolina,35.5953,-78.7778
644acdf0a6ac80d10e86054a,Alabaster,Alabama,33.2198,-86.8225
644acdf0a6ac80d10e86055b,Gillette,Wyoming,44.2752,-105.4982
644acdf0a6ac80d10e86052e,Kennesaw,Georgia,34.026,-84.6177
644acdf0a6ac80d10e860529,Fallbrook,California,33.3693,-117.2259
644acdf0a6ac80d10e860535,Pueblo West,Colorado,38.3465,-104.7246
644acdf0a6ac80d10e860533,Pullman,Washington,46.7336,-117.168
644acdf0a6ac80d10e860528,Spring Valley,New York,41.1151,-74.0486
644acdf0a6ac80d10e86052a,St. Charles,Illinois,41.9193,-88.3109
644acdf0a6ac80d10e860529,Beverly Hills,California,34.0786,-118.4021
644acdf0a6ac80d10e860529,Spring Valley,California,32.7317,-116.9766
644acdf0a6ac80d10e860541,American Fork,Utah,40.3783,-111.7953
644acdf0a6ac80d10e86052d,Chester,Pennsylvania,39.8456,-75.3718
644acdf0a6ac80d10e860528,Uniondale,New York,40.7176,-73.5947
644acdf0a6ac80d10e86052a,Elk Grove Village,Illinois,42.0064,-87.9921
644acdf0a6ac80d10e86052b,East Lake,Florida,28.1206,-82.6868
644acdf0a6ac80d10e86052e,Redan,Georgia,33.7394,-84.1644
644acdf0a6ac80d10e860529,Goleta,California,34.4361,-119.8594
644acdf0a6ac80d10e860533,Des Moines,Washington,47.3914,-122.3156
644acdf0a6ac80d10e86054e,Sherwood,Arkansas,34.8507,-92.2029
644acdf0a6ac80d10e860528,Kiryas Joel,New York,41.3411,-74.1667
644acdf0a6ac80d10e860551,Garfield,New Jersey,40.8791,-74.1085
644acdf0a6ac80d10e860534,Andover,Minnesota,45.2571,-93.3265
644acdf0a6ac80d10e860541,Kaysville,Utah,41.029,-111.9456
644acdf0a6ac80d10e86052e,Statesboro,Georgia,32.4375,-81.7751
644acdf0a6ac80d10e86052a,Pekin,Illinois,40.5678,-89.6251
644acdf0a6ac80d10e860528,Franklin Square,New York,40.7002,-73.6775
644acdf0a6ac80d10e86053b,North Olmsted,Ohio,41.4149,-81.919
644acdf0a6ac80d10e86052c,Nacogdoches,Texas,31.6134,-94.6528
644acdf0a6ac80d10e86052e,Canton,Georgia,34.2467,-84.4897
644acdf0a6ac80d10e860535,Wheat Ridge,Colorado,39.7728,-105.1028
644acdf0a6ac80d10e86052c,Harker Heights,Texas,31.0572,-97.6446
644acdf0a6ac80d10e860553,Rochester,New Hampshire,43.299,-70.9787
644acdf0a6ac80d10e860528,Rome,New York,43.226,-75.4909
644acdf0a6ac80d10e860552,Juneau,Alaska,58.4546,-134.1739
644acdf0a6ac80d10e860531,Kingman,Arizona,35.217,-114.0105
644acdf0a6ac80d10e86053b,Massillon,Ohio,40.7838,-81.5254
644acdf0a6ac80d10e860534,Savage,Minnesota,44.7545,-93.3632
644acdf0a6ac80d10e860559,Helena,Montana,46.5965,-112.0202
644acdf0a6ac80d10e860529,Lawndale,California,33.8884,-118.3531
644acdf0a6ac80d10e860529,Desert Hot Springs,California,33.955,-116.5429
644acdf0a6ac80d10e860528,Centereach,New York,40.8681,-73.0821
644acdf0a6ac80d10e860529,San Pablo,California,37.9629,-122.3426
644acdf0a6ac80d10e860535,Windsor,Colorado,40.469,-104.9198
644acdf0a6ac80d10e86052a,O'Fallon,Illinois,38.5974,-89.9148
644acdf0a6ac80d10e860546,Marrero,Louisiana,29.8871,-90.1126
644acdf0a6ac80d10e86052c,West Odessa,Texas,31.8389,-102.5003
644acdf0a6ac80d10e860554,Bangor,Maine,44.8323,-68.7906
644acdf0a6ac80d10e860528,Ithaca,New York,42.4442,-76.5032
644acdf0a6ac80d10e860541,Clearfield,Utah,41.103,-112.0238
644acdf0a6ac80d10e86053e,Springfield,Virginia,38.781,-77.1839
644acdf0a6ac80d10e860529,Fair Oaks,California,38.6504,-121.2496
644acdf0a6ac80d10e860541,Holladay,Utah,40.66,-111.8226
644acdf0a6ac80d10e860551,Long Branch,New Jersey,40.2965,-73.9915
644acdf0a6ac80d10e860541,Syracuse,Utah,41.0859,-112.0698
644acdf0a6ac80d10e86052b,Dania Beach,Florida,26.0593,-80.1637
644acdf0a6ac80d10e860543,Florence,Kentucky,38.9899,-84.6471
644acdf0a6ac80d10e86052a,Mundelein,Illinois,42.2693,-88.0102
644acdf0a6ac80d10e860545,Naugatuck,Connecticut,41.489,-73.0518
644acdf0a6ac80d10e860536,Pasadena,Maryland,39.1552,-76.5537
644acdf0a6ac80d10e860529,Los Altos,California,37.3684,-122.0965
644acdf0a6ac80d10e860549,Carlsbad,New Mexico,32.401,-104.2388
644acdf0a6ac80d10e86054b,Aiken,South Carolina,33.5303,-81.7271
644acdf0a6ac80d10e86052e,Duluth,Georgia,34.0053,-84.1492
644acdf0a6ac80d10e86055b,Laramie,Wyoming,41.3099,-105.6085
644acdf0a6ac80d10e86052c,Cibolo,Texas,29.5634,-98.2115
644acdf0a6ac80d10e860528,Bay Shore,New York,40.7288,-73.2495
644acdf0a6ac80d10e860529,La Verne,California,34.1207,-117.7703
644acdf0a6ac80d10e860529,Laguna Hills,California,33.5918,-117.6991
644acdf0a6ac80d10e860529,Atwater,California,37.3529,-120.5959
644acdf0a6ac80d10e860558,Newark,Delaware,39.6776,-75.7576
644acdf0a6ac80d10e860528,Port Chester,New York,41.0051,-73.668
644acdf0a6ac80d10e860542,Maryville,Tennessee,35.7468,-83.9789
644acdf0a6ac80d10e860544,Shawnee,Oklahoma,35.3531,-96.9647
644acdf0a6ac80d10e86052b,Lake Magdalene,Florida,28.0875,-82.4791
644acdf0a6ac80d10e86053e,Sterling,Virginia,39.0052,-77.405
644acdf0a6ac80d10e860549,Alamogordo,New Mexico,32.8837,-105.9625
644acdf0a6ac80d10e860529,Saratoga,California,37.2684,-122.0263
644acdf0a6ac80d10e860528,Oceanside,New York,40.6328,-73.6364
644acdf0a6ac80d10e86053b,North Royalton,Ohio,41.3138,-81.745
644acdf0a6ac80d10e860529,Burlingame,California,37.5859,-122.3667
644acdf0a6ac80d10e86052b,Lakeside,Florida,30.1356,-81.7674
644acdf0a6ac80d10e860542,Oak Ridge,Tennessee,35.9639,-84.2938
644acdf0a6ac80d10e860543,Nicholasville,Kentucky,37.8906,-84.5668
644acdf0a6ac80d10e86053d,New Bern,North Carolina,35.0955,-77.0723
644acdf0a6ac80d10e86052e,LaGrange,Georgia,33.0274,-85.0384
644acdf0a6ac80d10e86053e,West Falls Church,Virginia,38.8648,-77.1878
644acdf0a6ac80d10e860538,Ballwin,Missouri,38.595,-90.55
644acdf0a6ac80d10e86052c,Cleburne,Texas,32.3568,-97.4151
644acdf0a6ac80d10e86052a,Niles,Illinois,42.0278,-87.8099
644acdf0a6ac80d10e860536,Bel Air North,Maryland,39.5543,-76.3732
644acdf0a6ac80d10e860551,Westfield,New Jersey,40.6516,-74.3432
644acdf0a6ac80d10e860529,Orcutt,California,34.8691,-120.4222
644acdf0a6ac80d10e86053d,Cornelius,North Carolina,35.4724,-80.8813
644acdf0a6ac80d10e860533,SeaTac,Washington,47.4444,-122.2986
644acdf0a6ac80d10e86053d,Garner,North Carolina,35.6936,-78.6181
644acdf0a6ac80d10e86052a,Gurnee,Illinois,42.3708,-87.9392
644acdf0a6ac80d10e86054a,Opelika,Alabama,32.6612,-85.3769
644acdf0a6ac80d10e860536,Parkville,Maryland,39.3832,-76.5519
644acdf0a6ac80d10e860543,Hopkinsville,Kentucky,36.8381,-87.4775
644acdf0a6ac80d10e86052c,Southlake,Texas,32.9545,-97.1503
644acdf0a6ac80d10e860529,San Carlos,California,37.4982,-122.2677
644acdf0a6ac80d10e860529,Santa Paula,California,34.3545,-119.0656
644acdf0a6ac80d10e860551,Princeton,New Jersey,40.3562,-74.6693
644acdf0a6ac80d10e86053b,Bowling Green,Ohio,41.3776,-83.6495
644acdf0a6ac80d10e860536,Milford Mill,Maryland,39.3444,-76.7668
644acdf0a6ac80d10e86052c,Canyon Lake,Texas,29.8761,-98.2611
644acdf0a6ac80d10e86052a,North Chicago,Illinois,42.3172,-87.8595
644acdf0a6ac80d10e860536,Middle River,Maryland,39.3436,-76.4253
644acdf0a6ac80d10e860531,Drexel Heights,Arizona,32.1453,-111.048
644acdf0a6ac80d10e860528,North Tonawanda,New York,43.0457,-78.8659
644acdf0a6ac80d10e86052b,Miami Lakes,Florida,25.9125,-80.3214
644acdf0a6ac80d10e86052b,Ferry Pass,Florida,30.5205,-87.1899
644acdf0a6ac80d10e860529,San Lorenzo,California,37.6733,-122.1332
644acdf0a6ac80d10e86053c,Granger,Indiana,41.7374,-86.1348
644acdf0a6ac80d10e860542,Morristown,Tennessee,36.2043,-83.3001
644acdf0a6ac80d10e86052c,Weatherford,Texas,32.7536,-97.7723
644acdf0a6ac80d10e86054a,Northport,Alabama,33.2586,-87.5993
644acdf0a6ac80d10e86052e,Lawrenceville,Georgia,33.9523,-83.9932
644acdf0a6ac80d10e86052a,Galesburg,Illinois,40.9506,-90.3763
644acdf0a6ac80d10e86053c,Zionsville,Indiana,39.9897,-86.3182
644acdf0a6ac80d10e86052a,Highland Park,Illinois,42.1823,-87.8104
644acdf0a6ac80d10e86053b,Austintown,Ohio,41.0932,-80.7405
644acdf0a6ac80d10e860550,Greenville,Mississippi,33.385,-91.0514
644acdf0a6ac80d10e860538,Liberty,Missouri,39.2394,-94.4191
644acdf0a6ac80d10e860528,Middletown,New York,41.4459,-74.4236
644acdf0a6ac80d10e86053d,Sanford,North Carolina,35.4875,-79.177
644acdf0a6ac80d10e860529,Monterey,California,36.5919,-121.8808
644acdf0a6ac80d10e86052b,East Lake-Orient Park,Florida,27.997,-82.3653
644acdf0a6ac80d10e860532,Southgate,Michigan,42.2047,-83.2057
644acdf0a6ac80d10e860529,Eastern Goleta Valley,California,34.4448,-119.7879
644acdf0a6ac80d10e86052e,Chamblee,Georgia,33.8842,-84.3007
644acdf0a6ac80d10e860538,Raytown,Missouri,38.9944,-94.4641
644acdf0a6ac80d10e860529,East Palo Alto,California,37.4671,-122.1352
644acdf0a6ac80d10e860536,Carney,Maryland,39.405,-76.5235
644acdf0a6ac80d10e86052a,Algonquin,Illinois,42.1629,-88.3159
644acdf0a6ac80d10e86054e,Bella Vista,Arkansas,36.4667,-94.2707
644acdf0a6ac80d10e860530,Gloucester,Massachusetts,42.626,-70.6897
644acdf0a6ac80d10e860536,Crofton,Maryland,39.0144,-76.68
644acdf0a6ac80d10e860529,Atascadero,California,35.4827,-120.6858
644acdf0a6ac80d10e860546,Central,Louisiana,30.5593,-91.0369
644acdf0a6ac80d10e860532,Oak Park,Michigan,42.4649,-83.1824
644acdf0a6ac80d10e86052b,New Smyrna Beach,Florida,29.0249,-80.9652
644acdf0a6ac80d10e86052b,Winter Park,Florida,28.5989,-81.3442
644acdf0a6ac80d10e86054f,Eagle,Idaho,43.7223,-116.3866
644acdf0a6ac80d10e860529,Banning,California,33.946,-116.8992
644acdf0a6ac80d10e86053b,Garfield Heights,Ohio,41.4199,-81.6038
644acdf0a6ac80d10e860551,Rahway,New Jersey,40.6077,-74.2807
644acdf0a6ac80d10e860530,Melrose,Massachusetts,42.4556,-71.059
644acdf0a6ac80d10e86052a,Danville,Illinois,40.1426,-87.6111
644acdf0a6ac80d10e860532,Burton,Michigan,42.9974,-83.6175
644acdf0a6ac80d10e86053c,Hobart,Indiana,41.514,-87.2729
644acdf0a6ac80d10e86052b,Fleming Island,Florida,30.0988,-81.7124
644acdf0a6ac80d10e860535,Fountain,Colorado,38.6886,-104.6829
644acdf0a6ac80d10e86054e,Texarkana,Arkansas,33.436,-93.9959
644acdf0a6ac80d10e860536,Laurel,Maryland,39.0949,-76.8622
644acdf0a6ac80d10e860529,Suisun City,California,38.2473,-122.0091
644acdf0a6ac80d10e860534,Fridley,Minnesota,45.0841,-93.2595
644acdf0a6ac80d10e86053d,Matthews,North Carolina,35.1195,-80.7101
644acdf0a6ac80d10e86052b,Lakewood Ranch,Florida,27.4185,-82.3948
644acdf0a6ac80d10e86054e,Jacksonville,Arkansas,34.8807,-92.1304
644acdf0a6ac80d10e86053c,Schererville,Indiana,41.4861,-87.4442
644acdf0a6ac80d10e860530,Northampton,Massachusetts,42.3266,-72.6745
644acdf0a6ac80d10e860535,Erie,Colorado,40.0404,-105.0399
644acdf0a6ac80d10e86053f,Fitchburg,Wisconsin,42.9859,-89.4255
644acdf0a6ac80d10e86052d,Hazleton,Pennsylvania,40.9505,-75.9725
644acdf0a6ac80d10e86054e,Paragould,Arkansas,36.0555,-90.5149
644acdf0a6ac80d10e86052a,Burbank,Illinois,41.7444,-87.7686
644acdf0a6ac80d10e86052c,Seguin,Texas,29.5891,-97.9676
644acdf0a6ac80d10e860539,Bethany,Oregon,45.5614,-122.837
644acdf0a6ac80d10e86052b,Golden Gate,Florida,26.1844,-81.7031
644acdf0a6ac80d10e860538,Kirkwood,Missouri,38.5788,-90.4203
644acdf0a6ac80d10e86053b,Shaker Heights,Ohio,41.4744,-81.5496
644acdf0a6ac80d10e860536,Perry Hall,Maryland,39.4068,-76.478
644acdf0a6ac80d10e860551,Englewood,New Jersey,40.8917,-73.9736
644acdf0a6ac80d10e860546,Laplace,Louisiana,30.0731,-90.4758
644acdf0a6ac80d10e860541,Magna,Utah,40.7634,-112.1599
644acdf0a6ac80d10e860529,East Niles,California,35.3683,-118.9225
644acdf0a6ac80d10e86054e,Russellville,Arkansas,35.2762,-93.1383
644acdf0a6ac80d10e86052a,Lake in the Hills,Illinois,42.1913,-88.3477
644acdf0a6ac80d10e86052a,Lansing,Illinois,41.5648,-87.5462
644acdf0a6ac80d10e860537,Summerlin South,Nevada,36.1242,-115.3324
644acdf0a6ac80d10e860546,New Iberia,Louisiana,30.0049,-91.8202
644acdf0a6ac80d10e86052c,Prosper,Texas,33.2394,-96.8087
644acdf0a6ac80d10e86053d,Morrisville,North Carolina,35.8368,-78.8348
644acdf0a6ac80d10e860528,Jamestown,New York,42.0976,-79.2367
644acdf0a6ac80d10e86052b,Oakleaf Plantation,Florida,30.1689,-81.8337
644acdf0a6ac80d10e860543,Jeffersontown,Kentucky,38.2049,-85.5701
644acdf0a6ac80d10e86052b,Casselberry,Florida,28.6624,-81.3217
644acdf0a6ac80d10e860532,Madison Heights,Michigan,42.5073,-83.1034
644acdf0a6ac80d10e860538,Mehlville,Missouri,38.5018,-90.3149
644acdf0a6ac80d10e860529,Walnut,California,34.0334,-117.8593
644acdf0a6ac80d10e860528,Harrison,New York,41.0236,-73.7193
644acdf0a6ac80d10e86052d,Monroeville,Pennsylvania,40.4262,-79.7605
644acdf0a6ac80d10e86052e,McDonough,Georgia,33.4397,-84.1505
644acdf0a6ac80d10e86052e,Stockbridge,Georgia,33.5254,-84.2295
